$GNRMC,083301.00,A,1358.0162538,N,10026.7303514,E,0.02,,071222,,,D*52
$GNGGA,083301.00,1358.0162538,N,10026.7303514,E,4,25,0.8,4.006,M,-31.715,M,1.0,0499*72
$GPGSA,A,3,03,04,08,16,22,26,27,31,,,,,1.6,0.8,1.4*33
$GLGSA,A,3,71,72,85,,,,,,,,,,1.6,0.8,1.4*2A
$GAGSA,A,3,02,03,08,,,,,,,,,,1.6,0.8,1.4*20
$GBGSA,A,3,06,07,09,16,22,29,35,,,,,,1.6,0.8,1.4*28
$GPGSV,2,1,08,03,35,240,43,04,47,332,36,08,46,180,47,16,51,004,41*74
$GPGSV,2,2,08,22,30,133,41,26,25,031,42,27,62,120,48,31,16,076,40*7F
$GLGSV,1,1,03,71,44,176,51,72,70,279,46,85,18,145,45,,,,*5D
$GAGSV,1,1,03,02,43,010,43,03,57,140,47,08,67,328,49,,,,*52
$GBGSV,2,1,07,06,58,033,44,07,86,318,44,09,53,010,44,16,57,052,45*6A
$GBGSV,2,2,07,22,46,187,50,29,34,092,46,35,34,156,41,,,,*56
$GNVTG,,T,,M,0.02,N,0.04,K,D*3E
$GNGST,083301.00,3.800,,,,0.010,0.010,0.019*6D
$GNZDA,083301.00,07,12,2022,00,00*77
$GNRMC,083302.00,A,1358.0162536,N,10026.7303521,E,0.06,,071222,,,D*5D
$GNGGA,083302.00,1358.0162536,N,10026.7303521,E,4,25,0.8,3.997,M,-31.715,M,1.0,0499*7F
$GPGSA,A,3,03,04,08,16,22,26,27,31,,,,,1.6,0.8,1.4*33
$GLGSA,A,3,71,72,85,,,,,,,,,,1.6,0.8,1.4*2A
$GAGSA,A,3,02,03,08,,,,,,,,,,1.6,0.8,1.4*20
$GBGSA,A,3,06,07,09,16,22,29,35,,,,,,1.6,0.8,1.4*28
$GPGSV,2,1,08,03,35,240,43,04,47,332,36,08,46,180,47,16,51,004,41*74
$GPGSV,2,2,08,22,30,133,41,26,25,031,42,27,62,120,48,31,16,076,40*7F
$GLGSV,1,1,03,71,44,176,51,72,70,279,46,85,18,145,46,,,,*5E
$GAGSV,1,1,03,02,43,010,43,03,57,140,48,08,67,328,48,,,,*5C
$GBGSV,2,1,07,06,58,033,44,07,86,318,44,09,53,010,44,16,57,052,45*6A
$GBGSV,2,2,07,22,46,187,50,29,34,092,46,35,34,156,41,,,,*56
$GNVTG,,T,,M,0.06,N,0.11,K,D*3E
$GNGST,083302.00,3.900,,,,0.010,0.010,0.019*6F
$GNZDA,083302.00,07,12,2022,00,00*74
$GNRMC,083303.00,A,1358.0162519,N,10026.7303514,E,0.02,,071222,,,D*53
$GNGGA,083303.00,1358.0162519,N,10026.7303514,E,4,25,0.8,3.992,M,-31.715,M,1.0,0499*70
$GPGSA,A,3,03,04,08,16,22,26,27,31,,,,,1.6,0.8,1.4*33
$GLGSA,A,3,71,72,85,,,,,,,,,,1.6,0.8,1.4*2A
$GAGSA,A,3,02,03,08,,,,,,,,,,1.6,0.8,1.4*20
$GBGSA,A,3,06,07,09,16,22,29,35,,,,,,1.6,0.8,1.4*28
$GPGSV,2,1,08,03,35,240,43,04,47,332,36,08,46,180,47,16,51,004,41*74
$GPGSV,2,2,08,22,30,133,41,26,25,031,42,27,62,120,48,31,16,076,40*7F
$GLGSV,1,1,03,71,44,176,51,72,70,279,46,85,18,145,46,,,,*5E
$GAGSV,1,1,03,02,43,010,43,03,57,140,48,08,67,328,48,,,,*5C
$GBGSV,2,1,07,06,58,033,44,07,86,318,44,09,53,010,44,16,57,052,45*6A
$GBGSV,2,2,07,22,46,187,50,29,34,092,46,35,34,156,40,,,,*57
$GNVTG,,T,,M,0.02,N,0.04,K,D*3E
$GNGST,083303.00,3.900,,,,0.010,0.010,0.020*64
$GNZDA,083303.00,07,12,2022,00,00*75
$GNRMC,083304.00,A,1358.0162534,N,10026.7303529,E,0.02,,071222,,,D*55
$GNGGA,083304.00,1358.0162534,N,10026.7303529,E,4,25,0.8,3.996,M,-31.715,M,1.0,0499*72
$GPGSA,A,3,03,04,08,16,22,26,27,31,,,,,1.6,0.8,1.4*33
$GLGSA,A,3,71,72,85,,,,,,,,,,1.6,0.8,1.4*2A
$GAGSA,A,3,02,03,08,,,,,,,,,,1.6,0.8,1.4*20
$GBGSA,A,3,06,07,09,16,22,29,35,,,,,,1.6,0.8,1.4*28
$GPGSV,2,1,08,03,35,240,43,04,47,332,36,08,46,180,47,16,51,004,41*74
$GPGSV,2,2,08,22,30,133,41,26,25,031,42,27,62,120,48,31,16,076,40*7F
$GLGSV,1,1,03,71,44,176,51,72,70,279,46,85,18,145,46,,,,*5E
$GAGSV,1,1,03,02,43,010,43,03,57,140,48,08,67,328,48,,,,*5C
$GBGSV,2,1,07,06,58,033,44,07,86,318,44,09,53,010,44,16,57,052,45*6A
$GBGSV,2,2,07,22,46,187,50,29,34,092,47,35,34,156,40,,,,*56
$GNVTG,,T,,M,0.02,N,0.04,K,D*3E
$GNGST,083304.00,3.800,,,,0.010,0.010,0.021*63
$GNZDA,083304.00,07,12,2022,00,00*72
$GNRMC,083305.00,A,1358.0162550,N,10026.7303485,E,0.06,,071222,,,D*55
$GNGGA,083305.00,1358.0162550,N,10026.7303485,E,4,25,0.8,4.003,M,-31.715,M,1.0,0499*74
$GPGSA,A,3,03,04,08,16,22,26,27,31,,,,,1.6,0.8,1.4*33
$GLGSA,A,3,71,72,85,,,,,,,,,,1.6,0.8,1.4*2A
$GAGSA,A,3,02,03,08,,,,,,,,,,1.6,0.8,1.4*20
$GBGSA,A,3,06,07,09,16,22,29,35,,,,,,1.6,0.8,1.4*28
$GPGSV,2,1,08,03,35,240,43,04,47,331,36,08,46,180,47,16,51,004,41*77
$GPGSV,2,2,08,22,30,133,41,26,25,031,42,27,62,120,47,31,16,076,40*70
$GLGSV,1,1,03,71,44,176,51,72,70,279,46,85,18,145,46,,,,*5E
$GAGSV,1,1,03,02,43,010,43,03,57,140,48,08,67,328,49,,,,*5D
$GBGSV,2,1,07,06,58,033,44,07,86,318,45,09,53,010,44,16,57,052,45*6B
$GBGSV,2,2,07,22,46,187,50,29,34,092,47,35,34,156,40,,,,*56
$GNVTG,,T,,M,0.06,N,0.11,K,D*3E
$GNGST,083305.00,3.900,,,,0.010,0.010,0.021*63
$GNZDA,083305.00,07,12,2022,00,00*73
$GNRMC,083306.00,A,1358.0162562,N,10026.7303484,E,0.02,,071222,,,D*52
$GNGGA,083306.00,1358.0162562,N,10026.7303484,E,4,25,0.8,4.012,M,-31.715,M,1.0,0499*77
$GPGSA,A,3,03,04,08,16,22,26,27,31,,,,,1.6,0.8,1.4*33
$GLGSA,A,3,71,72,85,,,,,,,,,,1.6,0.8,1.4*2A
$GAGSA,A,3,02,03,08,,,,,,,,,,1.6,0.8,1.4*20
$GBGSA,A,3,06,07,09,16,22,29,35,,,,,,1.6,0.8,1.4*28
$GPGSV,2,1,08,03,35,240,43,04,47,331,36,08,46,180,47,16,51,004,41*77
$GPGSV,2,2,08,22,30,133,41,26,25,031,42,27,62,120,47,31,16,076,40*70
$GLGSV,1,1,03,71,44,176,51,72,70,279,46,85,18,145,46,,,,*5E
$GAGSV,1,1,03,02,43,010,43,03,57,140,48,08,67,328,49,,,,*5D
$GBGSV,2,1,07,06,58,033,44,07,86,318,45,09,53,010,44,16,57,052,45*6B
$GBGSV,2,2,07,22,46,187,50,29,34,092,47,35,34,156,40,,,,*56
$GNVTG,,T,,M,0.02,N,0.04,K,D*3E
$GNGST,083306.00,4.200,,,,0.010,0.010,0.021*6C
$GNZDA,083306.00,07,12,2022,00,00*70
$GNRMC,083307.00,A,1358.0162547,N,10026.7303481,E,0.02,,071222,,,D*51
$GNGGA,083307.00,1358.0162547,N,10026.7303481,E,4,26,0.8,4.012,M,-31.715,M,1.0,0499*77
$GPGSA,A,3,03,04,08,16,22,26,27,31,,,,,1.6,0.8,1.4*33
$GLGSA,A,3,71,72,84,85,,,,,,,,,1.6,0.8,1.4*26
$GAGSA,A,3,02,03,08,,,,,,,,,,1.6,0.8,1.4*20
$GBGSA,A,3,06,07,09,16,22,29,35,,,,,,1.6,0.8,1.4*28
$GPGSV,2,1,08,03,35,240,44,04,47,331,36,08,46,180,47,16,51,004,41*70
$GPGSV,2,2,08,22,30,133,41,26,25,031,42,27,62,120,47,31,16,076,40*70
$GLGSV,1,1,04,71,44,176,51,72,70,279,46,84,18,083,35,85,18,145,46*61
$GAGSV,1,1,03,02,43,010,43,03,57,140,48,08,67,328,49,,,,*5D
$GBGSV,2,1,07,06,58,033,44,07,86,318,44,09,53,010,43,16,57,052,45*6D
$GBGSV,2,2,07,22,46,187,50,29,34,092,47,35,34,156,41,,,,*57
$GNVTG,,T,,M,0.02,N,0.04,K,D*3E
$GNGST,083307.00,4.800,,,,0.010,0.010,0.019*6C
$GNZDA,083307.00,07,12,2022,00,00*71
$GNRMC,083308.00,A,1358.0162550,N,10026.7303467,E,0.02,,071222,,,D*50
$GNGGA,083308.00,1358.0162550,N,10026.7303467,E,4,26,0.8,4.025,M,-31.715,M,1.0,0499*72
$GPGSA,A,3,03,04,08,16,22,26,27,31,,,,,1.6,0.8,1.4*33
$GLGSA,A,3,71,72,84,85,,,,,,,,,1.6,0.8,1.4*26
$GAGSA,A,3,02,03,08,,,,,,,,,,1.6,0.8,1.4*20
$GBGSA,A,3,06,07,09,16,22,29,35,,,,,,1.6,0.8,1.4*28
$GPGSV,2,1,08,03,35,240,44,04,47,331,36,08,46,180,47,16,51,004,41*70
$GPGSV,2,2,08,22,30,133,41,26,25,031,42,27,62,120,47,31,16,076,40*70
$GLGSV,1,1,04,71,44,176,51,72,70,279,46,84,18,083,35,85,18,145,46*61
$GAGSV,1,1,03,02,43,010,43,03,57,140,48,08,67,328,49,,,,*5D
$GBGSV,2,1,07,06,58,033,44,07,86,318,44,09,53,010,43,16,57,052,46*6E
$GBGSV,2,2,07,22,46,187,50,29,34,092,47,35,34,156,40,,,,*56
$GNVTG,,T,,M,0.02,N,0.04,K,D*3E
$GNGST,083308.00,4.900,,,,0.010,0.010,0.018*63
$GNZDA,083308.00,07,12,2022,00,00*7E
$GNRMC,083309.00,A,1358.0162558,N,10026.7303466,E,0.02,,071222,,,D*58
$GNGGA,083309.00,1358.0162558,N,10026.7303466,E,4,25,0.8,4.018,M,-31.715,M,1.0,0499*77
$GPGSA,A,3,03,04,08,16,22,26,27,31,,,,,1.6,0.8,1.4*33
$GLGSA,A,3,71,72,85,,,,,,,,,,1.6,0.8,1.4*2A
$GAGSA,A,3,02,03,08,,,,,,,,,,1.6,0.8,1.4*20
$GBGSA,A,3,06,07,09,16,22,29,35,,,,,,1.6,0.8,1.4*28
$GPGSV,2,1,08,03,35,240,44,04,47,331,36,08,46,180,47,16,51,004,41*70
$GPGSV,2,2,08,22,30,133,41,26,25,031,42,27,62,120,47,31,16,076,40*70
$GLGSV,1,1,03,71,44,176,51,72,70,279,46,85,18,145,46,,,,*5E
$GAGSV,1,1,03,02,43,010,43,03,57,140,48,08,67,328,48,,,,*5C
$GBGSV,2,1,07,06,58,033,44,07,86,318,45,09,53,010,43,16,57,052,45*6C
$GBGSV,2,2,07,22,46,187,50,29,34,092,47,35,34,156,40,,,,*56
$GNVTG,,T,,M,0.02,N,0.04,K,D*3E
$GNGST,083309.00,4.000,,,,0.010,0.010,0.017*64
$GNZDA,083309.00,07,12,2022,00,00*7F
$GNRMC,083310.00,A,1358.0162549,N,10026.7303484,E,0.02,,071222,,,D*5C
$GNGGA,083310.00,1358.0162549,N,10026.7303484,E,4,26,0.8,4.016,M,-31.715,M,1.0,0499*7E
$GPGSA,A,3,03,04,08,16,22,26,27,31,,,,,1.6,0.8,1.4*33
$GLGSA,A,3,71,72,84,85,,,,,,,,,1.6,0.8,1.4*26
$GAGSA,A,3,02,03,08,,,,,,,,,,1.6,0.8,1.4*20
$GBGSA,A,3,06,07,09,16,22,29,35,,,,,,1.6,0.8,1.4*28
$GPGSV,2,1,08,03,35,240,44,04,47,331,36,08,46,180,47,16,51,004,41*70
$GPGSV,2,2,08,22,30,133,41,26,25,031,42,27,62,120,47,31,16,076,40*70
$GLGSV,1,1,04,71,44,176,51,72,70,279,46,84,18,083,35,85,18,145,46*61
$GAGSV,1,1,03,02,43,010,43,03,57,140,48,08,67,328,48,,,,*5C
$GBGSV,2,1,07,06,58,033,44,07,86,318,45,09,53,010,43,16,57,052,45*6C
$GBGSV,2,2,07,22,46,187,50,29,34,092,47,35,34,156,40,,,,*56
$GNVTG,,T,,M,0.02,N,0.04,K,D*3E
$GNGST,083310.00,5.000,,,,0.010,0.010,0.018*62
$GNZDA,083310.00,07,12,2022,00,00*77
$GNRMC,083311.00,A,1358.0162520,N,10026.7303446,E,0.02,,071222,,,D*5C
$GNGGA,083311.00,1358.0162520,N,10026.7303446,E,4,26,0.8,4.018,M,-31.715,M,2.0,0499*73
$GPGSA,A,3,03,04,08,16,22,26,27,31,,,,,1.6,0.8,1.4*33
$GLGSA,A,3,71,72,84,85,,,,,,,,,1.6,0.8,1.4*26
$GAGSA,A,3,02,03,08,,,,,,,,,,1.6,0.8,1.4*20
$GBGSA,A,3,06,07,09,16,22,29,35,,,,,,1.6,0.8,1.4*28
$GPGSV,2,1,08,03,35,240,44,04,47,331,36,08,46,180,47,16,51,004,41*70
$GPGSV,2,2,08,22,30,133,41,26,25,031,42,27,62,120,47,31,16,076,40*70
$GLGSV,1,1,04,71,44,176,51,72,70,279,46,84,18,083,35,85,18,145,46*61
$GAGSV,1,1,03,02,43,010,43,03,57,140,48,08,67,328,48,,,,*5C
$GBGSV,2,1,07,06,58,033,44,07,86,318,45,09,53,010,43,16,57,052,45*6C
$GBGSV,2,2,07,22,46,187,50,29,34,092,47,35,34,156,40,,,,*56
$GNVTG,,T,,M,0.02,N,0.04,K,D*3E
$GNGST,083311.00,5.000,,,,0.010,0.010,0.017*6C
$GNZDA,083311.00,07,12,2022,00,00*76
$GNRMC,083312.00,A,1358.0162532,N,10026.7303431,E,0.04,,071222,,,D*5A
$GNGGA,083312.00,1358.0162532,N,10026.7303431,E,4,26,0.8,4.013,M,-31.715,M,1.0,0499*7B
$GPGSA,A,3,03,04,08,16,22,26,27,31,,,,,1.6,0.8,1.4*33
$GLGSA,A,3,71,72,84,85,,,,,,,,,1.6,0.8,1.4*26
$GAGSA,A,3,02,03,08,,,,,,,,,,1.6,0.8,1.4*20
$GBGSA,A,3,06,07,09,16,22,29,35,,,,,,1.6,0.8,1.4*28
$GPGSV,2,1,08,03,35,240,44,04,47,331,36,08,46,180,47,16,51,004,41*70
$GPGSV,2,2,08,22,30,133,42,26,25,031,42,27,62,120,47,31,16,076,40*73
$GLGSV,1,1,04,71,44,176,51,72,70,279,46,84,18,083,35,85,18,145,46*61
$GAGSV,1,1,03,02,43,010,43,03,57,140,48,08,67,328,48,,,,*5C
$GBGSV,2,1,07,06,58,033,44,07,86,318,45,09,53,010,44,16,57,052,45*6B
$GBGSV,2,2,07,22,46,187,50,29,34,092,47,35,34,156,40,,,,*56
$GNVTG,,T,,M,0.04,N,0.07,K,D*3B
$GNGST,083312.00,4.900,,,,0.010,0.010,0.017*67
$GNZDA,083312.00,07,12,2022,00,00*75
$GNRMC,083313.00,A,1358.0162544,N,10026.7303448,E,0.02,,071222,,,D*52
$GNGGA,083313.00,1358.0162544,N,10026.7303448,E,4,26,0.8,4.014,M,-31.715,M,1.0,0499*72
$GPGSA,A,3,03,04,08,16,22,26,27,31,,,,,1.6,0.8,1.4*33
$GLGSA,A,3,71,72,84,85,,,,,,,,,1.6,0.8,1.4*26
$GAGSA,A,3,02,03,08,,,,,,,,,,1.6,0.8,1.4*20
$GBGSA,A,3,06,07,09,16,22,29,35,,,,,,1.6,0.8,1.4*28
$GPGSV,2,1,08,03,35,240,44,04,47,331,36,08,46,180,47,16,51,004,41*70
$GPGSV,2,2,08,22,30,133,42,26,25,031,42,27,63,119,48,31,16,076,40*77
$GLGSV,1,1,04,71,44,176,51,72,70,279,46,84,18,083,35,85,18,145,46*61
$GAGSV,1,1,03,02,43,010,43,03,57,140,48,08,67,328,48,,,,*5C
$GBGSV,2,1,07,06,58,033,44,07,86,318,45,09,53,010,43,16,57,052,45*6C
$GBGSV,2,2,07,22,46,187,50,29,34,092,47,35,34,156,40,,,,*56
$GNVTG,,T,,M,0.02,N,0.04,K,D*3E
$GNGST,083313.00,4.900,,,,0.010,0.010,0.018*69
$GNZDA,083313.00,07,12,2022,00,00*74
$GNRMC,083314.00,A,1358.0162540,N,10026.7303461,E,0.02,,071222,,,D*5A
$GNGGA,083314.00,1358.0162540,N,10026.7303461,E,4,26,0.8,4.008,M,-31.715,M,1.0,0499*77
$GPGSA,A,3,03,04,08,16,22,26,27,31,,,,,1.6,0.8,1.4*33
$GLGSA,A,3,71,72,84,85,,,,,,,,,1.6,0.8,1.4*26
$GAGSA,A,3,02,03,08,,,,,,,,,,1.6,0.8,1.4*20
$GBGSA,A,3,06,07,09,16,22,29,35,,,,,,1.6,0.8,1.4*28
$GPGSV,2,1,08,03,35,240,44,04,47,331,36,08,46,180,47,16,51,004,41*70
$GPGSV,2,2,08,22,30,133,42,26,25,031,42,27,63,119,47,31,16,076,40*78
$GLGSV,1,1,04,71,44,176,51,72,70,279,46,84,18,083,35,85,18,145,46*61
$GAGSV,1,1,03,02,43,010,43,03,57,140,48,08,67,328,48,,,,*5C
$GBGSV,2,1,07,06,58,033,44,07,86,318,45,09,53,010,43,16,57,052,45*6C
$GBGSV,2,2,07,22,46,187,50,29,34,092,47,35,34,156,40,,,,*56
$GNVTG,,T,,M,0.02,N,0.04,K,D*3E
$GNGST,083314.00,5.000,,,,0.010,0.010,0.018*66
$GNZDA,083314.00,07,12,2022,00,00*73
$GNRMC,083315.00,A,1358.0162547,N,10026.7303483,E,0.02,,071222,,,D*50
$GNGGA,083315.00,1358.0162547,N,10026.7303483,E,4,25,0.8,4.024,M,-31.715,M,1.0,0499*70
$GPGSA,A,3,03,04,08,16,22,26,27,31,,,,,1.6,0.8,1.4*33
$GLGSA,A,3,71,72,85,,,,,,,,,,1.6,0.8,1.4*2A
$GAGSA,A,3,02,03,08,,,,,,,,,,1.6,0.8,1.4*20
$GBGSA,A,3,06,07,09,16,22,29,35,,,,,,1.6,0.8,1.4*28
$GPGSV,2,1,08,03,35,240,44,04,47,331,36,08,46,180,47,16,51,004,41*70
$GPGSV,2,2,08,22,30,133,42,26,25,031,42,27,63,119,47,31,16,076,39*76
$GLGSV,1,1,03,71,44,176,51,72,70,279,46,85,18,145,46,,,,*5E
$GAGSV,1,1,03,02,43,010,43,03,57,140,47,08,67,328,48,,,,*53
$GBGSV,2,1,07,06,58,033,44,07,86,318,45,09,53,010,43,16,57,052,46*6F
$GBGSV,2,2,07,22,46,187,50,29,34,092,47,35,34,156,40,,,,*56
$GNVTG,,T,,M,0.02,N,0.04,K,D*3E
$GNGST,083315.00,4.400,,,,0.010,0.010,0.018*62
$GNZDA,083315.00,07,12,2022,00,00*72
$GNRMC,083316.00,A,1358.0162549,N,10026.7303488,E,0.02,,071222,,,D*56
$GNGGA,083316.00,1358.0162549,N,10026.7303488,E,4,26,0.8,4.014,M,-31.715,M,1.0,0499*76
$GPGSA,A,3,03,04,08,16,22,26,27,31,,,,,1.6,0.8,1.4*33
$GLGSA,A,3,71,72,84,85,,,,,,,,,1.6,0.8,1.4*26
$GAGSA,A,3,02,03,08,,,,,,,,,,1.6,0.8,1.4*20
$GBGSA,A,3,06,07,09,16,22,29,35,,,,,,1.6,0.8,1.4*28
$GPGSV,2,1,08,03,35,240,44,04,47,331,36,08,46,180,47,16,51,004,41*70
$GPGSV,2,2,08,22,30,133,42,26,25,031,42,27,63,119,47,31,16,076,40*78
$GLGSV,1,1,04,71,44,176,51,72,70,279,46,84,18,083,35,85,18,145,46*61
$GAGSV,1,1,03,02,43,010,43,03,57,140,47,08,67,328,48,,,,*53
$GBGSV,2,1,07,06,58,033,44,07,86,318,45,09,53,010,43,16,57,052,46*6F
$GBGSV,2,2,07,22,46,187,50,29,34,092,47,35,34,156,40,,,,*56
$GNVTG,,T,,M,0.02,N,0.04,K,D*3E
$GNGST,083316.00,5.300,,,,0.010,0.010,0.018*67
$GNZDA,083316.00,07,12,2022,00,00*71
$GNRMC,083317.00,A,1358.0162568,N,10026.7303466,E,0.00,,071222,,,D*56
$GNGGA,083317.00,1358.0162568,N,10026.7303466,E,4,26,0.8,4.015,M,-31.715,M,1.0,0499*75
$GPGSA,A,3,03,04,08,16,22,26,27,31,,,,,1.6,0.8,1.4*33
$GLGSA,A,3,71,72,84,85,,,,,,,,,1.6,0.8,1.4*26
$GAGSA,A,3,02,03,08,,,,,,,,,,1.6,0.8,1.4*20
$GBGSA,A,3,06,07,09,16,22,29,35,,,,,,1.6,0.8,1.4*28
$GPGSV,2,1,08,03,35,240,44,04,47,331,36,08,46,180,47,16,51,004,41*70
$GPGSV,2,2,08,22,30,133,42,26,25,031,42,27,63,119,47,31,16,076,40*78
$GLGSV,1,1,04,71,44,176,51,72,70,279,46,84,18,083,35,85,18,145,46*61
$GAGSV,1,1,03,02,43,010,43,03,57,140,47,08,67,328,48,,,,*53
$GBGSV,2,1,07,06,58,033,44,07,86,318,45,09,53,010,43,16,57,052,45*6C
$GBGSV,2,2,07,22,46,187,50,29,34,092,47,35,34,156,40,,,,*56
$GNVTG,,T,,M,0.00,N,0.00,K,D*38
$GNGST,083317.00,5.200,,,,0.010,0.010,0.019*66
$GNZDA,083317.00,07,12,2022,00,00*70
$GNRMC,083318.00,A,1358.0162557,N,10026.7303472,E,0.00,,071222,,,D*50
$GNGGA,083318.00,1358.0162557,N,10026.7303472,E,4,26,0.8,4.013,M,-31.715,M,1.0,0499*75
$GPGSA,A,3,03,04,08,16,22,26,27,31,,,,,1.6,0.8,1.4*33
$GLGSA,A,3,71,72,84,85,,,,,,,,,1.6,0.8,1.4*26
$GAGSA,A,3,02,03,08,,,,,,,,,,1.6,0.8,1.4*20
$GBGSA,A,3,06,07,09,16,22,29,35,,,,,,1.6,0.8,1.4*28
$GPGSV,2,1,08,03,35,240,44,04,47,331,36,08,46,180,47,16,51,004,41*70
$GPGSV,2,2,08,22,30,133,42,26,25,031,42,27,63,119,47,31,16,076,39*76
$GLGSV,1,1,04,71,44,176,51,72,70,279,46,84,18,083,35,85,18,145,46*61
$GAGSV,1,1,03,02,43,010,43,03,57,140,48,08,67,328,48,,,,*5C
$GBGSV,2,1,07,06,58,033,44,07,86,318,45,09,53,010,43,16,57,052,45*6C
$GBGSV,2,2,07,22,46,187,50,29,34,092,47,35,34,156,40,,,,*56
$GNVTG,,T,,M,0.00,N,0.00,K,D*38
$GNGST,083318.00,5.200,,,,0.010,0.010,0.019*69
$GNZDA,083318.00,07,12,2022,00,00*7F
$GNRMC,083319.00,A,1358.0162556,N,10026.7303480,E,0.02,,071222,,,D*5F
$GNGGA,083319.00,1358.0162556,N,10026.7303480,E,4,26,0.8,4.003,M,-31.715,M,1.0,0499*79
$GPGSA,A,3,03,04,08,16,22,26,27,31,,,,,1.6,0.8,1.4*33
$GLGSA,A,3,71,72,84,85,,,,,,,,,1.6,0.8,1.4*26
$GAGSA,A,3,02,03,08,,,,,,,,,,1.6,0.8,1.4*20
$GBGSA,A,3,06,07,09,16,22,29,35,,,,,,1.6,0.8,1.4*28
$GPGSV,2,1,08,03,35,240,45,04,47,331,36,08,46,180,47,16,51,004,41*71
$GPGSV,2,2,08,22,30,133,42,26,25,031,42,27,63,119,47,31,16,076,39*76
$GLGSV,1,1,04,71,44,176,51,72,70,279,46,84,18,083,35,85,18,145,46*61
$GAGSV,1,1,03,02,43,010,42,03,57,140,48,08,67,328,48,,,,*5D
$GBGSV,2,1,07,06,58,033,44,07,86,318,45,09,53,010,43,16,57,052,45*6C
$GBGSV,2,2,07,22,46,187,50,29,34,092,47,35,34,156,40,,,,*56
$GNVTG,,T,,M,0.02,N,0.04,K,D*3E
$GNGST,083319.00,5.200,,,,0.010,0.010,0.020*62
$GNZDA,083319.00,07,12,2022,00,00*7E
$GNRMC,083320.00,A,1358.0162568,N,10026.7303479,E,0.02,,071222,,,D*5E
$GNGGA,083320.00,1358.0162568,N,10026.7303479,E,4,26,0.8,4.002,M,-31.715,M,1.0,0499*79
$GPGSA,A,3,03,04,08,16,22,26,27,31,,,,,1.6,0.8,1.4*33
$GLGSA,A,3,71,72,84,85,,,,,,,,,1.6,0.8,1.4*26
$GAGSA,A,3,02,03,08,,,,,,,,,,1.6,0.8,1.4*20
$GBGSA,A,3,06,07,09,16,22,29,35,,,,,,1.6,0.8,1.4*28
$GPGSV,2,1,08,03,35,240,45,04,47,331,35,08,46,180,47,16,51,004,41*72
$GPGSV,2,2,08,22,30,133,42,26,25,031,42,27,63,119,47,31,16,076,40*78
$GLGSV,1,1,04,71,43,176,51,72,70,279,46,84,18,083,35,85,18,145,46*66
$GAGSV,1,1,03,02,43,010,43,03,57,140,48,08,67,328,48,,,,*5C
$GBGSV,2,1,07,06,58,033,44,07,86,318,45,09,53,010,44,16,57,052,45*6B
$GBGSV,2,2,07,22,46,187,50,29,34,092,47,35,34,156,40,,,,*56
$GNVTG,,T,,M,0.02,N,0.04,K,D*3E
$GNGST,083320.00,5.600,,,,0.010,0.010,0.021*6D
$GNZDA,083320.00,07,12,2022,00,00*74
$GNRMC,083321.00,A,1358.0162556,N,10026.7303497,E,0.02,,071222,,,D*52
$GNGGA,083321.00,1358.0162556,N,10026.7303497,E,4,26,0.8,4.003,M,-31.715,M,1.0,0499*74
$GPGSA,A,3,03,04,08,16,22,26,27,31,,,,,1.6,0.8,1.4*33
$GLGSA,A,3,71,72,84,85,,,,,,,,,1.6,0.8,1.4*26
$GAGSA,A,3,02,03,08,,,,,,,,,,1.6,0.8,1.4*20
$GBGSA,A,3,06,07,09,16,22,29,35,,,,,,1.6,0.8,1.4*28
$GPGSV,2,1,08,03,35,240,45,04,47,331,35,08,46,180,47,16,51,004,41*72
$GPGSV,2,2,08,22,30,133,42,26,25,031,42,27,63,119,47,31,16,076,40*78
$GLGSV,1,1,04,71,43,176,51,72,70,279,46,84,18,083,35,85,18,145,46*66
$GAGSV,1,1,03,02,43,010,43,03,57,140,48,08,67,328,48,,,,*5C
$GBGSV,2,1,07,06,58,033,44,07,86,318,45,09,53,010,43,16,57,052,45*6C
$GBGSV,2,2,07,22,46,187,50,29,34,092,47,35,34,156,40,,,,*56
$GNVTG,,T,,M,0.02,N,0.04,K,D*3E
$GNGST,083321.00,5.500,,,,0.010,0.010,0.021*6F
$GNZDA,083321.00,07,12,2022,00,00*75
$GNRMC,083322.00,A,1358.0162544,N,10026.7303493,E,0.00,,071222,,,D*54
$GNGGA,083322.00,1358.0162544,N,10026.7303493,E,4,26,0.8,4.005,M,-31.715,M,1.0,0499*76
$GPGSA,A,3,03,04,08,16,22,26,27,31,,,,,1.6,0.8,1.4*33
$GLGSA,A,3,71,72,84,85,,,,,,,,,1.6,0.8,1.4*26
$GAGSA,A,3,02,03,08,,,,,,,,,,1.6,0.8,1.4*20
$GBGSA,A,3,06,07,09,16,22,29,35,,,,,,1.6,0.8,1.4*28
$GPGSV,2,1,08,03,35,240,44,04,47,331,35,08,46,180,47,16,51,004,40*72
$GPGSV,2,2,08,22,30,133,42,26,25,031,42,27,63,119,47,31,16,076,40*78
$GLGSV,1,1,04,71,43,176,51,72,70,279,46,84,18,083,35,85,18,145,46*66
$GAGSV,1,1,03,02,43,010,43,03,57,140,48,08,67,328,48,,,,*5C
$GBGSV,2,1,07,06,58,033,44,07,86,318,45,09,53,010,44,16,57,052,46*68
$GBGSV,2,2,07,22,46,187,50,29,34,092,47,35,34,156,40,,,,*56
$GNVTG,,T,,M,0.00,N,0.00,K,D*38
$GNGST,083322.00,5.600,,,,0.010,0.010,0.021*6F
$GNZDA,083322.00,07,12,2022,00,00*76
$GNRMC,083323.00,A,1358.0162545,N,10026.7303489,E,0.02,,071222,,,D*5D
$GNGGA,083323.00,1358.0162545,N,10026.7303489,E,4,26,0.8,4.002,M,-31.715,M,1.0,0499*7A
$GPGSA,A,3,03,04,08,16,22,26,27,31,,,,,1.6,0.8,1.4*33
$GLGSA,A,3,71,72,84,85,,,,,,,,,1.6,0.8,1.4*26
$GAGSA,A,3,02,03,08,,,,,,,,,,1.6,0.8,1.4*20
$GBGSA,A,3,06,07,09,16,22,29,35,,,,,,1.6,0.8,1.4*28
$GPGSV,2,1,08,03,35,240,44,04,47,331,35,08,46,180,47,16,51,004,40*72
$GPGSV,2,2,08,22,30,133,42,26,25,031,42,27,63,119,47,31,16,076,39*76
$GLGSV,1,1,04,71,43,176,51,72,70,279,46,84,18,083,35,85,18,145,46*66
$GAGSV,1,1,03,02,43,010,43,03,57,140,48,08,67,328,48,,,,*5C
$GBGSV,2,1,07,06,58,033,44,07,86,318,45,09,53,010,44,16,57,052,46*68
$GBGSV,2,2,07,22,46,187,50,29,34,092,47,35,34,156,40,,,,*56
$GNVTG,,T,,M,0.02,N,0.04,K,D*3E
$GNGST,083323.00,5.800,,,,0.010,0.011,0.022*62
$GNZDA,083323.00,07,12,2022,00,00*77
$GNRMC,083324.00,A,1358.0162541,N,10026.7303493,E,0.00,,071222,,,D*57
$GNGGA,083324.00,1358.0162541,N,10026.7303493,E,4,26,0.8,4.005,M,-31.715,M,1.0,0499*75
$GPGSA,A,3,03,04,08,16,22,26,27,31,,,,,1.6,0.8,1.4*33
$GLGSA,A,3,71,72,84,85,,,,,,,,,1.6,0.8,1.4*26
$GAGSA,A,3,02,03,08,,,,,,,,,,1.6,0.8,1.4*20
$GBGSA,A,3,06,07,09,16,22,29,35,,,,,,1.6,0.8,1.4*28
$GPGSV,2,1,08,03,35,240,44,04,47,331,35,08,46,180,47,16,51,004,40*72
$GPGSV,2,2,08,22,30,133,42,26,25,031,42,27,63,119,47,31,16,076,40*78
$GLGSV,1,1,04,71,43,176,51,72,70,278,46,84,18,083,35,85,18,145,46*67
$GAGSV,1,1,03,02,43,010,43,03,57,140,48,08,67,328,48,,,,*5C
$GBGSV,2,1,07,06,58,033,44,07,86,318,45,09,53,010,44,16,57,052,45*6B
$GBGSV,2,2,07,22,46,187,50,29,34,092,47,35,34,156,40,,,,*56
$GNVTG,,T,,M,0.00,N,0.00,K,D*38
$GNGST,083324.00,5.600,,,,0.010,0.011,0.022*6B
$GNZDA,083324.00,07,12,2022,00,00*70
$GNRMC,083325.00,A,1358.0162555,N,10026.7303478,E,0.04,,071222,,,D*52
$GNGGA,083325.00,1358.0162555,N,10026.7303478,E,4,26,0.8,4.004,M,-31.715,M,1.0,0499*75
$GPGSA,A,3,03,04,08,16,22,26,27,31,,,,,1.6,0.8,1.4*33
$GLGSA,A,3,71,72,84,85,,,,,,,,,1.6,0.8,1.4*26
$GAGSA,A,3,02,03,08,,,,,,,,,,1.6,0.8,1.4*20
$GBGSA,A,3,06,07,09,16,22,29,35,,,,,,1.6,0.8,1.4*28
$GPGSV,2,1,08,03,35,240,44,04,47,331,35,08,46,180,47,16,51,004,40*72
$GPGSV,2,2,08,22,30,133,42,26,25,031,42,27,63,119,47,31,16,076,39*76
$GLGSV,1,1,04,71,43,176,51,72,70,278,46,84,18,083,35,85,18,145,46*67
$GAGSV,1,1,03,02,43,010,43,03,57,140,48,08,67,328,48,,,,*5C
$GBGSV,2,1,07,06,58,033,44,07,86,318,45,09,53,010,44,16,57,052,46*68
$GBGSV,2,2,07,22,46,187,50,29,34,092,47,35,34,156,40,,,,*56
$GNVTG,,T,,M,0.04,N,0.07,K,D*3B
$GNGST,083325.00,5.600,,,,0.010,0.011,0.022*6A
$GNZDA,083325.00,07,12,2022,00,00*71
$GNRMC,083326.00,A,1358.0162559,N,10026.7303462,E,0.02,,071222,,,D*50
$GNGGA,083326.00,1358.0162559,N,10026.7303462,E,4,26,0.8,4.027,M,-31.715,M,1.0,0499*70
$GPGSA,A,3,03,04,08,16,22,26,27,31,,,,,1.6,0.8,1.4*33
$GLGSA,A,3,71,72,84,85,,,,,,,,,1.6,0.8,1.4*26
$GAGSA,A,3,02,03,08,,,,,,,,,,1.6,0.8,1.4*20
$GBGSA,A,3,06,07,09,16,22,29,35,,,,,,1.6,0.8,1.4*28
$GPGSV,2,1,08,03,35,240,44,04,47,331,35,08,46,180,47,16,51,004,40*72
$GPGSV,2,2,08,22,30,133,42,26,25,031,42,27,63,119,47,31,16,076,39*76
$GLGSV,1,1,04,71,43,176,51,72,70,278,46,84,18,083,35,85,18,145,46*67
$GAGSV,1,1,03,02,43,010,43,03,57,140,48,08,67,328,48,,,,*5C
$GBGSV,2,1,07,06,58,033,44,07,86,318,45,09,53,010,44,16,57,052,45*6B
$GBGSV,2,2,07,22,46,187,50,29,34,092,47,35,34,156,40,,,,*56
$GNVTG,,T,,M,0.02,N,0.04,K,D*3E
$GNGST,083326.00,5.700,,,,0.010,0.010,0.021*6A
$GNZDA,083326.00,07,12,2022,00,00*72
$GNRMC,083327.00,A,1358.0162550,N,10026.7303496,E,0.02,,071222,,,D*53
$GNGGA,083327.00,1358.0162550,N,10026.7303496,E,4,25,0.9,4.030,M,-31.715,M,1.0,0499*77
$GPGSA,A,3,03,08,16,22,26,27,31,,,,,,1.7,0.9,1.4*37
$GLGSA,A,3,71,72,84,85,,,,,,,,,1.7,0.9,1.4*26
$GAGSA,A,3,02,03,08,,,,,,,,,,1.7,0.9,1.4*20
$GBGSA,A,3,06,07,09,16,22,29,35,,,,,,1.7,0.9,1.4*28
$GPGSV,2,1,07,03,35,240,45,08,46,180,47,16,51,004,40,22,30,133,42*78
$GPGSV,2,2,07,26,25,031,42,27,63,119,47,31,16,076,39,,,,*4D
$GLGSV,1,1,04,71,43,176,51,72,70,278,46,84,18,083,35,85,18,145,46*67
$GAGSV,1,1,03,02,43,010,43,03,57,140,48,08,67,328,48,,,,*5C
$GBGSV,2,1,07,06,58,033,44,07,86,318,45,09,53,010,44,16,57,052,45*6B
$GBGSV,2,2,07,22,46,187,50,29,34,092,47,35,34,156,40,,,,*56
$GNVTG,,T,,M,0.02,N,0.04,K,D*3E
$GNGST,083327.00,5.000,,,,0.010,0.010,0.019*67
$GNZDA,083327.00,07,12,2022,00,00*73
$GNRMC,083328.00,A,1358.0162531,N,10026.7303507,E,0.02,,071222,,,D*52
$GNGGA,083328.00,1358.0162531,N,10026.7303507,E,4,25,0.9,4.023,M,-31.715,M,1.0,0499*74
$GPGSA,A,3,03,08,16,22,26,27,31,,,,,,1.7,0.9,1.4*37
$GLGSA,A,3,71,72,84,85,,,,,,,,,1.7,0.9,1.4*26
$GAGSA,A,3,02,03,08,,,,,,,,,,1.7,0.9,1.4*20
$GBGSA,A,3,06,07,09,16,22,29,35,,,,,,1.7,0.9,1.4*28
$GPGSV,2,1,07,03,35,240,45,08,46,180,47,16,51,004,40,22,30,133,42*78
$GPGSV,2,2,07,26,25,031,42,27,63,119,47,31,16,076,39,,,,*4D
$GLGSV,1,1,04,71,43,176,51,72,70,278,46,84,18,083,36,85,18,145,46*64
$GAGSV,1,1,03,02,43,010,42,03,57,140,48,08,67,328,48,,,,*5D
$GBGSV,2,1,07,06,58,033,44,07,86,318,45,09,53,010,44,16,57,052,46*68
$GBGSV,2,2,07,22,46,187,50,29,34,092,47,35,34,156,40,,,,*56
$GNVTG,,T,,M,0.02,N,0.04,K,D*3E
$GNGST,083328.00,4.800,,,,0.010,0.010,0.018*60
$GNZDA,083328.00,07,12,2022,00,00*7C
$GNRMC,083329.00,A,1358.0162508,N,10026.7303536,E,0.02,,071222,,,D*5B
$GNGGA,083329.00,1358.0162508,N,10026.7303536,E,4,25,0.9,4.022,M,-31.715,M,1.0,0499*7C
$GPGSA,A,3,03,08,16,22,26,27,31,,,,,,1.7,0.9,1.4*37
$GLGSA,A,3,71,72,84,85,,,,,,,,,1.7,0.9,1.4*26
$GAGSA,A,3,02,03,08,,,,,,,,,,1.7,0.9,1.4*20
$GBGSA,A,3,06,07,09,16,22,29,35,,,,,,1.7,0.9,1.4*28
$GPGSV,2,1,07,03,35,240,45,08,46,180,47,16,51,004,40,22,30,133,42*78
$GPGSV,2,2,07,26,25,031,42,27,63,119,47,31,16,076,39,,,,*4D
$GLGSV,1,1,04,71,43,176,51,72,70,278,46,84,18,083,36,85,18,145,46*64
$GAGSV,1,1,03,02,43,010,42,03,57,140,48,08,67,328,48,,,,*5D
$GBGSV,2,1,07,06,58,033,44,07,86,318,45,09,53,010,44,16,57,052,45*6B
$GBGSV,2,2,07,22,46,187,50,29,34,092,47,35,34,156,40,,,,*56
$GNVTG,,T,,M,0.02,N,0.04,K,D*3E
$GNGST,083329.00,4.700,,,,0.010,0.010,0.018*6E
$GNZDA,083329.00,07,12,2022,00,00*7D
$GNRMC,083330.00,A,1358.0162503,N,10026.7303510,E,0.02,,071222,,,D*5C
$GNGGA,083330.00,1358.0162503,N,10026.7303510,E,4,25,0.9,4.018,M,-31.715,M,1.0,0499*72
$GPGSA,A,3,03,08,16,22,26,27,31,,,,,,1.7,0.9,1.4*37
$GLGSA,A,3,71,72,84,85,,,,,,,,,1.7,0.9,1.4*26
$GAGSA,A,3,02,03,08,,,,,,,,,,1.7,0.9,1.4*20
$GBGSA,A,3,06,07,09,16,22,29,35,,,,,,1.7,0.9,1.4*28
$GPGSV,2,1,07,03,35,240,45,08,46,180,47,16,51,004,40,22,30,133,42*78
$GPGSV,2,2,07,26,25,031,42,27,63,119,47,31,16,076,39,,,,*4D
$GLGSV,1,1,04,71,43,176,51,72,70,278,46,84,18,083,36,85,18,145,46*64
$GAGSV,1,1,03,02,43,010,42,03,57,140,48,08,67,328,48,,,,*5D
$GBGSV,2,1,07,06,58,033,44,07,86,318,45,09,53,010,44,16,57,052,45*6B
$GBGSV,2,2,07,22,46,187,50,29,34,092,47,35,34,156,40,,,,*56
$GNVTG,,T,,M,0.02,N,0.04,K,D*3E
$GNGST,083330.00,4.600,,,,0.010,0.010,0.020*6C
$GNZDA,083330.00,07,12,2022,00,00*75
$GNRMC,083331.00,A,1358.0162496,N,10026.7303506,E,0.02,,071222,,,D*57
$GNGGA,083331.00,1358.0162496,N,10026.7303506,E,4,25,0.9,4.015,M,-31.715,M,1.0,0499*74
$GPGSA,A,3,03,08,16,22,26,27,31,,,,,,1.7,0.9,1.4*37
$GLGSA,A,3,71,72,84,85,,,,,,,,,1.7,0.9,1.4*26
$GAGSA,A,3,02,03,08,,,,,,,,,,1.7,0.9,1.4*20
$GBGSA,A,3,06,07,09,16,22,29,35,,,,,,1.7,0.9,1.4*28
$GPGSV,2,1,07,03,35,240,45,08,46,180,47,16,51,004,40,22,30,133,42*78
$GPGSV,2,2,07,26,25,031,42,27,63,119,47,31,16,076,39,,,,*4D
$GLGSV,1,1,04,71,43,176,51,72,70,278,47,84,18,083,36,85,18,145,46*65
$GAGSV,1,1,03,02,43,010,43,03,57,140,48,08,67,328,48,,,,*5C
$GBGSV,2,1,07,06,58,033,44,07,86,318,45,09,53,010,43,16,57,052,45*6C
$GBGSV,2,2,07,22,46,187,50,29,34,092,47,35,34,156,40,,,,*56
$GNVTG,,T,,M,0.02,N,0.04,K,D*3E
$GNGST,083331.00,4.600,,,,0.010,0.010,0.020*6D
$GNZDA,083331.00,07,12,2022,00,00*74
$GNRMC,083332.00,A,1358.0162502,N,10026.7303505,E,0.04,,071222,,,D*5D
$GNGGA,083332.00,1358.0162502,N,10026.7303505,E,4,25,0.9,4.021,M,-31.715,M,1.0,0499*7F
$GPGSA,A,3,03,08,16,22,26,27,31,,,,,,1.7,0.9,1.4*37
$GLGSA,A,3,71,72,84,85,,,,,,,,,1.7,0.9,1.4*26
$GAGSA,A,3,02,03,08,,,,,,,,,,1.7,0.9,1.4*20
$GBGSA,A,3,06,07,09,16,22,29,35,,,,,,1.7,0.9,1.4*28
$GPGSV,2,1,07,03,35,240,44,08,46,180,47,16,51,004,41,22,30,133,42*78
$GPGSV,2,2,07,26,25,031,42,27,63,119,47,31,16,076,39,,,,*4D
$GLGSV,1,1,04,71,43,176,50,72,70,278,47,84,18,083,36,85,18,145,46*64
$GAGSV,1,1,03,02,43,010,42,03,57,140,48,08,67,328,48,,,,*5D
$GBGSV,2,1,07,06,58,033,44,07,86,318,45,09,53,010,44,16,57,052,46*68
$GBGSV,2,2,07,22,46,187,50,29,34,092,47,35,34,156,40,,,,*56
$GNVTG,,T,,M,0.04,N,0.07,K,D*3B
$GNGST,083332.00,4.100,,,,0.010,0.010,0.019*63
$GNZDA,083332.00,07,12,2022,00,00*77
$GNRMC,083333.00,A,1358.0162499,N,10026.7303507,E,0.02,,071222,,,D*5B
$GNGGA,083333.00,1358.0162499,N,10026.7303507,E,4,25,0.9,4.023,M,-31.715,M,2.0,0499*7E
$GPGSA,A,3,03,08,16,22,26,27,31,,,,,,1.7,0.9,1.4*37
$GLGSA,A,3,71,72,84,85,,,,,,,,,1.7,0.9,1.4*26
$GAGSA,A,3,02,03,08,,,,,,,,,,1.7,0.9,1.4*20
$GBGSA,A,3,06,07,09,16,22,29,35,,,,,,1.7,0.9,1.4*28
$GPGSV,2,1,07,03,35,240,45,08,46,180,47,16,51,004,40,22,30,133,42*78
$GPGSV,2,2,07,26,25,031,42,27,63,119,47,31,16,076,38,,,,*4C
$GLGSV,1,1,04,71,43,176,51,72,70,278,47,84,18,083,36,85,18,145,46*65
$GAGSV,1,1,03,02,43,010,43,03,57,140,48,08,67,328,48,,,,*5C
$GBGSV,2,1,07,06,58,033,44,07,86,318,45,09,53,010,43,16,57,052,46*6F
$GBGSV,2,2,07,22,46,187,50,29,34,092,47,35,34,156,40,,,,*56
$GNVTG,,T,,M,0.02,N,0.04,K,D*3E
$GNGST,083333.00,4.500,,,,0.010,0.010,0.019*66
$GNZDA,083333.00,07,12,2022,00,00*76
$GNRMC,083334.00,A,1358.0162501,N,10026.7303513,E,0.04,,071222,,,D*5F
$GNGGA,083334.00,1358.0162501,N,10026.7303513,E,4,25,0.9,4.018,M,-31.715,M,2.0,0499*74
$GPGSA,A,3,03,08,16,22,26,27,31,,,,,,1.7,0.9,1.4*37
$GLGSA,A,3,71,72,84,85,,,,,,,,,1.7,0.9,1.4*26
$GAGSA,A,3,02,03,08,,,,,,,,,,1.7,0.9,1.4*20
$GBGSA,A,3,06,07,09,16,22,29,35,,,,,,1.7,0.9,1.4*28
$GPGSV,2,1,07,03,35,240,45,08,46,180,47,16,51,004,40,22,30,133,42*78
$GPGSV,2,2,07,26,25,031,42,27,63,119,47,31,16,076,38,,,,*4C
$GLGSV,1,1,04,71,43,176,51,72,70,278,47,84,18,083,36,85,18,145,46*65
$GAGSV,1,1,03,02,43,010,43,03,57,140,48,08,67,328,48,,,,*5C
$GBGSV,2,1,07,06,58,033,44,07,86,318,45,09,53,010,43,16,57,052,46*6F
$GBGSV,2,2,07,22,46,187,50,29,34,092,47,35,34,156,41,,,,*57
$GNVTG,,T,,M,0.04,N,0.07,K,D*3B
$GNGST,083334.00,4.600,,,,0.010,0.010,0.019*62
$GNZDA,083334.00,07,12,2022,00,00*71
$GNRMC,083335.00,A,1358.0162505,N,10026.7303508,E,0.02,,071222,,,D*56
$GNGGA,083335.00,1358.0162505,N,10026.7303508,E,4,25,0.9,4.020,M,-31.715,M,2.0,0499*70
$GPGSA,A,3,03,08,16,22,26,27,31,,,,,,1.7,0.9,1.4*37
$GLGSA,A,3,71,72,84,85,,,,,,,,,1.7,0.9,1.4*26
$GAGSA,A,3,02,03,08,,,,,,,,,,1.7,0.9,1.4*20
$GBGSA,A,3,06,07,09,16,22,29,35,,,,,,1.7,0.9,1.4*28
$GPGSV,2,1,07,03,35,240,45,08,46,180,47,16,51,004,41,22,30,133,42*79
$GPGSV,2,2,07,26,25,031,42,27,63,119,47,31,16,076,38,,,,*4C
$GLGSV,1,1,04,71,43,176,50,72,70,278,47,84,18,083,36,85,18,145,46*64
$GAGSV,1,1,03,02,43,010,43,03,57,140,48,08,67,328,48,,,,*5C
$GBGSV,2,1,07,06,58,033,44,07,86,318,45,09,53,010,43,16,57,052,46*6F
$GBGSV,2,2,07,22,46,187,50,29,34,092,47,35,34,156,41,,,,*57
$GNVTG,,T,,M,0.02,N,0.04,K,D*3E
$GNGST,083335.00,4.100,,,,0.010,0.010,0.018*65
$GNZDA,083335.00,07,12,2022,00,00*70
$GNRMC,083336.00,A,1358.0162511,N,10026.7303509,E,0.02,,071222,,,D*51
$GNGGA,083336.00,1358.0162511,N,10026.7303509,E,4,25,0.9,4.025,M,-31.715,M,3.0,0499*73
$GPGSA,A,3,03,08,16,22,26,27,31,,,,,,1.7,0.9,1.4*37
$GLGSA,A,3,71,72,84,85,,,,,,,,,1.7,0.9,1.4*26
$GAGSA,A,3,02,03,08,,,,,,,,,,1.7,0.9,1.4*20
$GBGSA,A,3,06,07,09,16,22,29,35,,,,,,1.7,0.9,1.4*28
$GPGSV,2,1,07,03,35,240,45,08,46,180,47,16,51,004,41,22,30,133,43*78
$GPGSV,2,2,07,26,25,031,42,27,63,119,47,31,16,076,39,,,,*4D
$GLGSV,1,1,04,71,43,176,51,72,70,278,47,84,18,083,36,85,18,145,46*65
$GAGSV,1,1,03,02,43,010,43,03,57,140,48,08,67,328,48,,,,*5C
$GBGSV,2,1,07,06,58,033,44,07,86,318,45,09,53,010,43,16,57,052,46*6F
$GBGSV,2,2,07,22,46,187,50,29,34,092,46,35,34,156,41,,,,*56
$GNVTG,,T,,M,0.02,N,0.04,K,D*3E
$GNGST,083336.00,4.300,,,,0.010,0.010,0.017*6B
$GNZDA,083336.00,07,12,2022,00,00*73
$GNRMC,083337.00,A,1358.0162517,N,10026.7303515,E,0.00,,071222,,,D*59
$GNGGA,083337.00,1358.0162517,N,10026.7303515,E,4,25,0.9,4.030,M,-31.715,M,4.0,0499*7A
$GPGSA,A,3,03,08,16,22,26,27,31,,,,,,1.7,0.9,1.4*37
$GLGSA,A,3,71,72,84,85,,,,,,,,,1.7,0.9,1.4*26
$GAGSA,A,3,02,03,08,,,,,,,,,,1.7,0.9,1.4*20
$GBGSA,A,3,06,07,09,16,22,29,35,,,,,,1.7,0.9,1.4*28
$GPGSV,2,1,07,03,35,240,45,08,46,180,47,16,51,004,41,22,30,133,43*78
$GPGSV,2,2,07,26,25,031,42,27,63,119,47,31,16,076,38,,,,*4C
$GLGSV,1,1,04,71,43,176,51,72,70,278,47,84,18,083,36,85,18,145,46*65
$GAGSV,1,1,03,02,43,010,42,03,57,140,48,08,67,328,48,,,,*5D
$GBGSV,2,1,07,06,58,033,44,07,85,319,45,09,53,010,44,16,57,052,46*6A
$GBGSV,2,2,07,22,46,187,50,29,34,092,46,35,34,156,41,,,,*56
$GNVTG,,T,,M,0.00,N,0.00,K,D*38
$GNGST,083337.00,4.500,,,,0.010,0.010,0.017*6C
$GNZDA,083337.00,07,12,2022,00,00*72
$GNRMC,083338.00,A,1358.0162517,N,10026.7303499,E,0.02,,071222,,,D*51
$GNGGA,083338.00,1358.0162517,N,10026.7303499,E,4,25,0.9,4.028,M,-31.715,M,5.0,0499*78
$GPGSA,A,3,03,08,16,22,26,27,31,,,,,,1.7,0.9,1.4*37
$GLGSA,A,3,71,72,84,85,,,,,,,,,1.7,0.9,1.4*26
$GAGSA,A,3,02,03,08,,,,,,,,,,1.7,0.9,1.4*20
$GBGSA,A,3,06,07,09,16,22,29,35,,,,,,1.7,0.9,1.4*28
$GPGSV,2,1,07,03,35,240,45,08,46,180,47,16,51,004,41,22,30,133,43*78
$GPGSV,2,2,07,26,25,031,42,27,63,119,48,31,16,076,38,,,,*43
$GLGSV,1,1,04,71,43,176,51,72,70,278,47,84,18,083,36,85,18,145,46*65
$GAGSV,1,1,03,02,43,010,42,03,57,140,48,08,67,328,48,,,,*5D
$GBGSV,2,1,07,06,58,033,44,07,85,319,45,09,54,010,43,16,57,052,46*6A
$GBGSV,2,2,07,22,46,187,50,29,34,092,46,35,34,156,41,,,,*56
$GNVTG,,T,,M,0.02,N,0.04,K,D*3E
$GNGST,083338.00,4.400,,,,0.010,0.010,0.016*63
$GNZDA,083338.00,07,12,2022,00,00*7D
$GNRMC,083339.00,A,1358.0162512,N,10026.7303495,E,0.04,,071222,,,D*5F
$GNGGA,083339.00,1358.0162512,N,10026.7303495,E,4,25,0.9,4.028,M,-31.715,M,6.0,0499*73
$GPGSA,A,3,03,08,16,22,26,27,31,,,,,,1.7,0.9,1.4*37
$GLGSA,A,3,71,72,84,85,,,,,,,,,1.7,0.9,1.4*26
$GAGSA,A,3,02,03,08,,,,,,,,,,1.7,0.9,1.4*20
$GBGSA,A,3,06,07,09,16,22,29,35,,,,,,1.7,0.9,1.4*28
$GPGSV,2,1,07,03,35,240,45,08,46,180,47,16,51,004,41,22,30,133,43*78
$GPGSV,2,2,07,26,25,031,42,27,63,119,47,31,16,076,38,,,,*4C
$GLGSV,1,1,04,71,43,176,51,72,70,278,47,84,18,083,36,85,18,145,46*65
$GAGSV,1,1,03,02,43,010,42,03,57,140,48,08,67,328,48,,,,*5D
$GBGSV,2,1,07,06,58,033,45,07,85,319,45,09,54,010,43,16,57,052,46*6B
$GBGSV,2,2,07,22,46,187,50,29,34,092,46,35,34,156,41,,,,*56
$GNVTG,,T,,M,0.04,N,0.07,K,D*3B
$GNGST,083339.00,4.200,,,,0.010,0.010,0.016*64
$GNZDA,083339.00,07,12,2022,00,00*7C
$GNRMC,083340.00,A,1358.0162524,N,10026.7303475,E,0.02,,071222,,,D*5C
$GNGGA,083340.00,1358.0162524,N,10026.7303475,E,4,25,0.9,4.026,M,-31.715,M,5.0,0499*7B
$GPGSA,A,3,03,08,16,22,26,27,31,,,,,,1.7,0.9,1.4*37
$GLGSA,A,3,71,72,84,85,,,,,,,,,1.7,0.9,1.4*26
$GAGSA,A,3,02,03,08,,,,,,,,,,1.7,0.9,1.4*20
$GBGSA,A,3,06,07,09,16,22,29,35,,,,,,1.7,0.9,1.4*28
$GPGSV,2,1,07,03,35,240,45,08,46,180,47,16,51,004,41,22,30,133,43*78
$GPGSV,2,2,07,26,25,031,42,27,63,119,48,31,16,076,38,,,,*43
$GLGSV,1,1,04,71,43,176,51,72,70,278,47,84,18,083,36,85,18,145,46*65
$GAGSV,1,1,03,02,43,010,42,03,57,140,48,08,67,328,48,,,,*5D
$GBGSV,2,1,07,06,58,033,44,07,85,319,45,09,54,010,44,16,57,052,46*6D
$GBGSV,2,2,07,22,46,186,50,29,34,092,46,35,34,156,41,,,,*57
$GNVTG,,T,,M,0.02,N,0.04,K,D*3E
$GNGST,083340.00,4.400,,,,0.010,0.010,0.016*6C
$GNZDA,083340.00,07,12,2022,00,00*72
$GNRMC,083341.00,A,1358.0162510,N,10026.7303477,E,0.00,,071222,,,D*5A
$GNGGA,083341.00,1358.0162510,N,10026.7303477,E,4,25,0.9,4.032,M,-31.715,M,1.0,0499*7E
$GPGSA,A,3,03,08,16,22,26,27,31,,,,,,1.7,0.9,1.4*37
$GLGSA,A,3,71,72,84,85,,,,,,,,,1.7,0.9,1.4*26
$GAGSA,A,3,02,03,08,,,,,,,,,,1.7,0.9,1.4*20
$GBGSA,A,3,06,07,09,16,22,29,35,,,,,,1.7,0.9,1.4*28
$GPGSV,2,1,07,03,35,240,44,08,46,180,47,16,51,004,41,22,30,133,43*79
$GPGSV,2,2,07,26,25,031,42,27,63,119,48,31,16,076,38,,,,*43
$GLGSV,1,1,04,71,43,176,50,72,70,278,47,84,18,083,36,85,18,145,46*64
$GAGSV,1,1,03,02,43,010,42,03,57,140,48,08,67,328,48,,,,*5D
$GBGSV,2,1,07,06,58,033,44,07,85,319,45,09,54,010,44,16,57,052,46*6D
$GBGSV,2,2,07,22,46,186,50,29,34,092,46,35,34,156,41,,,,*57
$GNVTG,,T,,M,0.00,N,0.00,K,D*38
$GNGST,083341.00,4.000,,,,0.010,0.010,0.016*69
$GNZDA,083341.00,07,12,2022,00,00*73
$GNRMC,083342.00,A,1358.0162492,N,10026.7303479,E,0.02,,071222,,,D*5E
$GNGGA,083342.00,1358.0162492,N,10026.7303479,E,4,25,0.9,4.020,M,-31.715,M,2.0,0499*78
$GPGSA,A,3,03,08,16,22,26,27,31,,,,,,1.7,0.9,1.4*37
$GLGSA,A,3,71,72,84,85,,,,,,,,,1.7,0.9,1.4*26
$GAGSA,A,3,02,03,08,,,,,,,,,,1.7,0.9,1.4*20
$GBGSA,A,3,06,07,09,16,22,29,35,,,,,,1.7,0.9,1.4*28
$GPGSV,2,1,07,03,35,240,45,08,46,180,47,16,51,004,41,22,30,133,43*78
$GPGSV,2,2,07,26,25,031,42,27,63,119,48,31,16,076,38,,,,*43
$GLGSV,1,1,04,71,43,176,50,72,70,278,47,84,18,083,36,85,18,145,46*64
$GAGSV,1,1,03,02,43,010,42,03,57,140,48,08,67,328,48,,,,*5D
$GBGSV,2,1,07,06,58,033,44,07,85,319,45,09,54,010,44,16,57,052,46*6D
$GBGSV,2,2,07,22,46,186,50,29,34,092,46,35,35,155,41,,,,*55
$GNVTG,,T,,M,0.02,N,0.04,K,D*3E
$GNGST,083342.00,3.900,,,,0.010,0.010,0.016*64
$GNZDA,083342.00,07,12,2022,00,00*70
$GNRMC,083343.00,A,1358.0162500,N,10026.7303486,E,0.02,,071222,,,D*55
$GNGGA,083343.00,1358.0162500,N,10026.7303486,E,4,25,0.9,4.026,M,-31.715,M,3.0,0499*74
$GPGSA,A,3,03,08,16,22,26,27,31,,,,,,1.7,0.9,1.4*37
$GLGSA,A,3,71,72,84,85,,,,,,,,,1.7,0.9,1.4*26
$GAGSA,A,3,02,03,08,,,,,,,,,,1.7,0.9,1.4*20
$GBGSA,A,3,06,07,09,16,22,29,35,,,,,,1.7,0.9,1.4*28
$GPGSV,2,1,07,03,35,240,44,08,46,180,47,16,51,004,41,22,30,133,43*79
$GPGSV,2,2,07,26,25,031,42,27,63,119,48,31,16,076,38,,,,*43
$GLGSV,1,1,04,71,43,176,50,72,70,278,47,84,18,083,36,85,18,145,46*64
$GAGSV,1,1,03,02,43,010,42,03,57,140,48,08,67,328,48,,,,*5D
$GBGSV,2,1,07,06,58,033,44,07,85,319,45,09,54,010,44,16,57,052,46*6D
$GBGSV,2,2,07,22,46,186,50,29,34,092,46,35,35,155,41,,,,*55
$GNVTG,,T,,M,0.02,N,0.04,K,D*3E
$GNGST,083343.00,3.900,,,,0.010,0.010,0.016*65
$GNZDA,083343.00,07,12,2022,00,00*71
$GNRMC,083344.00,A,1358.0162519,N,10026.7303474,E,0.02,,071222,,,D*57
$GNGGA,083344.00,1358.0162519,N,10026.7303474,E,4,25,0.9,4.034,M,-31.715,M,4.0,0499*72
$GPGSA,A,3,03,08,16,22,26,27,31,,,,,,1.7,0.9,1.4*37
$GLGSA,A,3,71,72,84,85,,,,,,,,,1.7,0.9,1.4*26
$GAGSA,A,3,02,03,08,,,,,,,,,,1.7,0.9,1.4*20
$GBGSA,A,3,06,07,09,16,22,29,35,,,,,,1.7,0.9,1.4*28
$GPGSV,2,1,07,03,35,240,44,08,46,180,47,16,51,004,41,22,30,133,43*79
$GPGSV,2,2,07,26,25,031,42,27,63,119,47,31,16,076,39,,,,*4D
$GLGSV,1,1,04,71,43,176,50,72,70,278,47,84,18,083,35,85,18,145,46*67
$GAGSV,1,1,03,02,43,010,42,03,57,140,48,08,67,328,48,,,,*5D
$GBGSV,2,1,07,06,58,033,44,07,85,319,45,09,54,010,44,16,57,052,46*6D
$GBGSV,2,2,07,22,46,186,50,29,34,092,46,35,35,155,40,,,,*54
$GNVTG,,T,,M,0.02,N,0.04,K,D*3E
$GNGST,083344.00,4.200,,,,0.010,0.010,0.016*6E
$GNZDA,083344.00,07,12,2022,00,00*76
$GNRMC,083345.00,A,1358.0162516,N,10026.7303490,E,0.02,,071222,,,D*53
$GNGGA,083345.00,1358.0162516,N,10026.7303490,E,4,25,0.9,4.035,M,-31.715,M,1.0,0499*72
$GPGSA,A,3,03,08,16,22,26,27,31,,,,,,1.7,0.9,1.4*37
$GLGSA,A,3,71,72,84,85,,,,,,,,,1.7,0.9,1.4*26
$GAGSA,A,3,02,03,08,,,,,,,,,,1.7,0.9,1.4*20
$GBGSA,A,3,06,07,09,16,22,29,35,,,,,,1.7,0.9,1.4*28
$GPGSV,2,1,07,03,35,240,45,08,46,180,47,16,51,004,41,22,30,133,43*78
$GPGSV,2,2,07,26,25,031,42,27,63,119,48,31,16,076,38,,,,*43
$GLGSV,1,1,04,71,43,176,50,72,70,278,47,84,18,083,35,85,18,145,47*66
$GAGSV,1,1,03,02,43,010,42,03,57,140,48,08,67,328,48,,,,*5D
$GBGSV,2,1,07,06,58,033,44,07,85,319,45,09,54,010,44,16,57,052,46*6D
$GBGSV,2,2,07,22,46,186,50,29,34,092,47,35,35,155,40,,,,*55
$GNVTG,,T,,M,0.02,N,0.04,K,D*3E
$GNGST,083345.00,4.300,,,,0.010,0.010,0.016*6E
$GNZDA,083345.00,07,12,2022,00,00*77
$GNRMC,083346.00,A,1358.0162507,N,10026.7303505,E,0.04,,071222,,,D*5B
$GNGGA,083346.00,1358.0162507,N,10026.7303505,E,4,25,0.9,4.024,M,-31.715,M,1.0,0499*7C
$GPGSA,A,3,03,08,16,22,26,27,31,,,,,,1.7,0.9,1.4*37
$GLGSA,A,3,71,72,84,85,,,,,,,,,1.7,0.9,1.4*26
$GAGSA,A,3,02,03,08,,,,,,,,,,1.7,0.9,1.4*20
$GBGSA,A,3,06,07,09,16,22,29,35,,,,,,1.7,0.9,1.4*28
$GPGSV,2,1,07,03,35,240,45,08,46,180,47,16,51,004,41,22,30,133,43*78
$GPGSV,2,2,07,26,25,031,42,27,63,119,48,31,16,076,38,,,,*43
$GLGSV,1,1,04,71,43,176,50,72,70,278,47,84,18,083,35,85,18,145,47*66
$GAGSV,1,1,03,02,43,010,42,03,57,140,48,08,67,328,48,,,,*5D
$GBGSV,2,1,07,06,58,033,44,07,85,319,45,09,54,010,44,16,57,052,46*6D
$GBGSV,2,2,07,22,46,186,50,29,34,092,46,35,35,155,40,,,,*54
$GNVTG,,T,,M,0.04,N,0.07,K,D*3B
$GNGST,083346.00,4.200,,,,0.010,0.010,0.015*6F
$GNZDA,083346.00,07,12,2022,00,00*74
$GNRMC,083347.00,A,1358.0162486,N,10026.7303524,E,0.02,,071222,,,D*57
$GNGGA,083347.00,1358.0162486,N,10026.7303524,E,4,25,0.9,4.017,M,-31.715,M,1.0,0499*76
$GPGSA,A,3,03,08,16,22,26,27,31,,,,,,1.7,0.9,1.4*37
$GLGSA,A,3,71,72,84,85,,,,,,,,,1.7,0.9,1.4*26
$GAGSA,A,3,02,03,08,,,,,,,,,,1.7,0.9,1.4*20
$GBGSA,A,3,06,07,09,16,22,29,35,,,,,,1.7,0.9,1.4*28
$GPGSV,2,1,07,03,35,240,45,08,46,180,47,16,51,004,41,22,30,133,43*78
$GPGSV,2,2,07,26,25,031,42,27,63,119,47,31,16,076,38,,,,*4C
$GLGSV,1,1,04,71,43,176,50,72,70,278,47,84,18,083,35,85,18,145,47*66
$GAGSV,1,1,03,02,43,010,42,03,57,140,48,08,67,328,49,,,,*5C
$GBGSV,2,1,07,06,58,033,44,07,85,319,45,09,54,010,44,16,57,052,46*6D
$GBGSV,2,2,07,22,46,186,50,29,34,092,46,35,35,155,40,,,,*54
$GNVTG,,T,,M,0.02,N,0.04,K,D*3E
$GNGST,083347.00,4.200,,,,0.010,0.010,0.015*6E
$GNZDA,083347.00,07,12,2022,00,00*75
$GNRMC,083348.00,A,1358.0162474,N,10026.7303511,E,0.02,,071222,,,D*53
$GNGGA,083348.00,1358.0162474,N,10026.7303511,E,4,25,0.8,4.013,M,-31.715,M,1.0,0499*77
$GPGSA,A,3,03,08,16,22,26,27,31,,,,,,1.6,0.8,1.4*37
$GLGSA,A,3,71,72,84,85,,,,,,,,,1.6,0.8,1.4*26
$GAGSA,A,3,02,03,08,,,,,,,,,,1.6,0.8,1.4*20
$GBGSA,A,3,06,07,09,16,22,29,35,,,,,,1.6,0.8,1.4*28
$GPGSV,2,1,07,03,35,240,45,08,46,180,47,16,51,004,41,22,30,133,43*78
$GPGSV,2,2,07,26,25,031,42,27,63,119,47,31,16,076,38,,,,*4C
$GLGSV,1,1,04,71,43,176,50,72,70,278,47,84,18,083,35,85,18,145,47*66
$GAGSV,1,1,03,02,43,010,42,03,57,140,48,08,67,328,48,,,,*5D
$GBGSV,2,1,07,06,58,033,45,07,85,319,45,09,54,010,44,16,57,052,46*6C
$GBGSV,2,2,07,22,46,186,50,29,34,092,46,35,35,155,40,,,,*54
$GNVTG,,T,,M,0.02,N,0.04,K,D*3E
$GNGST,083348.00,4.200,,,,0.010,0.010,0.016*62
$GNZDA,083348.00,07,12,2022,00,00*7A
$GNRMC,083349.00,A,1358.0162483,N,10026.7303550,E,0.02,,071222,,,D*5F
$GNGGA,083349.00,1358.0162483,N,10026.7303550,E,4,25,0.8,4.031,M,-31.715,M,1.0,0499*7B
$GPGSA,A,3,03,08,16,22,26,27,31,,,,,,1.6,0.8,1.4*37
$GLGSA,A,3,71,72,84,85,,,,,,,,,1.6,0.8,1.4*26
$GAGSA,A,3,02,03,08,,,,,,,,,,1.6,0.8,1.4*20
$GBGSA,A,3,06,07,09,16,22,29,35,,,,,,1.6,0.8,1.4*28
$GPGSV,2,1,07,03,35,240,45,08,46,180,47,16,51,004,41,22,30,133,43*78
$GPGSV,2,2,07,26,25,031,42,27,63,119,47,31,16,076,37,,,,*43
$GLGSV,1,1,04,71,43,176,50,72,70,278,47,84,18,083,35,85,18,145,47*66
$GAGSV,1,1,03,02,43,010,42,03,57,140,48,08,67,328,48,,,,*5D
$GBGSV,2,1,07,06,58,033,45,07,85,319,45,09,54,010,44,16,57,052,46*6C
$GBGSV,2,2,07,22,46,186,50,29,34,092,46,35,35,155,40,,,,*54
$GNVTG,,T,,M,0.02,N,0.04,K,D*3E
$GNGST,083349.00,4.400,,,,0.010,0.010,0.016*65
$GNZDA,083349.00,07,12,2022,00,00*7B
$GNRMC,083350.00,A,1358.0162505,N,10026.7303562,E,0.02,,071222,,,D*59
$GNGGA,083350.00,1358.0162505,N,10026.7303562,E,4,25,0.8,4.038,M,-31.715,M,1.0,0499*74
$GPGSA,A,3,03,08,16,22,26,27,31,,,,,,1.6,0.8,1.4*37
$GLGSA,A,3,71,72,84,85,,,,,,,,,1.6,0.8,1.4*26
$GAGSA,A,3,02,03,08,,,,,,,,,,1.6,0.8,1.4*20
$GBGSA,A,3,06,07,09,16,22,29,35,,,,,,1.6,0.8,1.4*28
$GPGSV,2,1,07,03,35,240,45,08,46,180,47,16,51,004,41,22,30,133,43*78
$GPGSV,2,2,07,26,25,031,42,27,63,119,48,31,16,076,37,,,,*4C
$GLGSV,1,1,04,71,43,176,50,72,70,278,47,84,18,083,35,85,18,145,47*66
$GAGSV,1,1,03,02,43,010,42,03,57,140,48,08,67,328,48,,,,*5D
$GBGSV,2,1,07,06,58,033,45,07,85,319,45,09,54,010,44,16,57,052,46*6C
$GBGSV,2,2,07,22,46,186,50,29,34,092,46,35,35,155,40,,,,*54
$GNVTG,,T,,M,0.02,N,0.04,K,D*3E
$GNGST,083350.00,4.400,,,,0.010,0.010,0.017*6C
$GNZDA,083350.00,07,12,2022,00,00*73
$GNRMC,083351.00,A,1358.0162479,N,10026.7303559,E,0.02,,071222,,,D*5A
$GNGGA,083351.00,1358.0162479,N,10026.7303559,E,4,25,0.8,4.045,M,-31.715,M,1.0,0499*7D
$GPGSA,A,3,03,08,16,22,26,27,31,,,,,,1.6,0.8,1.4*37
$GLGSA,A,3,71,72,84,85,,,,,,,,,1.6,0.8,1.4*26
$GAGSA,A,3,02,03,08,,,,,,,,,,1.6,0.8,1.4*20
$GBGSA,A,3,06,07,09,16,22,29,35,,,,,,1.6,0.8,1.4*28
$GPGSV,2,1,07,03,35,240,44,08,46,180,47,16,51,004,41,22,30,133,43*79
$GPGSV,2,2,07,26,25,031,42,27,63,119,47,31,16,076,37,,,,*43
$GLGSV,1,1,04,71,43,176,50,72,70,278,47,84,18,083,35,85,18,145,47*66
$GAGSV,1,1,03,02,43,010,42,03,57,140,48,08,67,328,48,,,,*5D
$GBGSV,2,1,07,06,58,033,45,07,85,319,45,09,54,010,44,16,57,052,46*6C
$GBGSV,2,2,07,22,46,186,50,29,34,092,46,35,35,155,40,,,,*54
$GNVTG,,T,,M,0.02,N,0.04,K,D*3E
$GNGST,083351.00,4.400,,,,0.010,0.010,0.017*6D
$GNZDA,083351.00,07,12,2022,00,00*72
$GNRMC,083352.00,A,1358.0162497,N,10026.7303545,E,0.04,,071222,,,D*52
$GNGGA,083352.00,1358.0162497,N,10026.7303545,E,4,25,0.8,4.048,M,-31.715,M,1.0,0499*7E
$GPGSA,A,3,03,08,16,22,26,27,31,,,,,,1.6,0.8,1.4*37
$GLGSA,A,3,71,72,84,85,,,,,,,,,1.6,0.8,1.4*26
$GAGSA,A,3,02,03,08,,,,,,,,,,1.6,0.8,1.4*20
$GBGSA,A,3,06,07,09,16,22,29,35,,,,,,1.6,0.8,1.4*28
$GPGSV,2,1,07,03,35,240,44,08,46,180,47,16,51,004,41,22,30,133,43*79
$GPGSV,2,2,07,26,25,031,42,27,63,119,47,31,16,076,37,,,,*43
$GLGSV,1,1,04,71,43,176,50,72,70,278,48,84,18,083,35,85,18,145,47*69
$GAGSV,1,1,03,02,43,010,42,03,57,140,48,08,67,328,49,,,,*5C
$GBGSV,2,1,07,06,58,033,45,07,85,319,45,09,54,010,44,16,57,052,46*6C
$GBGSV,2,2,07,22,46,186,50,29,34,092,46,35,35,155,40,,,,*54
$GNVTG,,T,,M,0.04,N,0.07,K,D*3B
$GNGST,083352.00,4.500,,,,0.010,0.010,0.018*60
$GNZDA,083352.00,07,12,2022,00,00*71
$GNRMC,083353.00,A,1358.0162486,N,10026.7303547,E,0.00,,071222,,,D*55
$GNGGA,083353.00,1358.0162486,N,10026.7303547,E,4,25,0.8,4.037,M,-31.715,M,1.0,0499*75
$GPGSA,A,3,03,08,16,22,26,27,31,,,,,,1.6,0.8,1.4*37
$GLGSA,A,3,71,72,84,85,,,,,,,,,1.6,0.8,1.4*26
$GAGSA,A,3,02,03,08,,,,,,,,,,1.6,0.8,1.4*20
$GBGSA,A,3,06,07,09,16,22,29,35,,,,,,1.6,0.8,1.4*28
$GPGSV,2,1,07,03,35,240,44,08,46,180,47,16,51,004,41,22,30,133,43*79
$GPGSV,2,2,07,26,25,031,42,27,63,119,48,31,16,076,37,,,,*4C
$GLGSV,1,1,04,71,43,176,50,72,70,278,47,84,18,083,35,85,18,145,47*66
$GAGSV,1,1,03,02,43,010,43,03,57,140,48,08,67,328,49,,,,*5D
$GBGSV,2,1,07,06,58,033,44,07,85,319,45,09,54,010,44,16,57,052,46*6D
$GBGSV,2,2,07,22,46,186,50,29,34,092,46,35,35,155,40,,,,*54
$GNVTG,,T,,M,0.00,N,0.00,K,D*38
$GNGST,083353.00,4.400,,,,0.010,0.010,0.018*60
$GNZDA,083353.00,07,12,2022,00,00*70
$GNRMC,083354.00,A,1358.0162471,N,10026.7303576,E,0.04,,071222,,,D*5C
$GNGGA,083354.00,1358.0162471,N,10026.7303576,E,4,25,0.8,4.025,M,-31.715,M,1.0,0499*7B
$GPGSA,A,3,03,08,16,22,26,27,31,,,,,,1.6,0.8,1.4*37
$GLGSA,A,3,71,72,84,85,,,,,,,,,1.6,0.8,1.4*26
$GAGSA,A,3,02,03,08,,,,,,,,,,1.6,0.8,1.4*20
$GBGSA,A,3,06,07,09,16,22,29,35,,,,,,1.6,0.8,1.4*28
$GPGSV,2,1,07,03,35,240,44,08,46,180,47,16,51,004,41,22,30,133,43*79
$GPGSV,2,2,07,26,25,031,42,27,63,119,48,31,16,076,37,,,,*4C
$GLGSV,1,1,04,71,43,176,50,72,70,278,47,84,18,083,35,85,18,145,47*66
$GAGSV,1,1,03,02,43,010,43,03,57,140,48,08,67,328,49,,,,*5D
$GBGSV,2,1,07,06,58,033,45,07,85,319,45,09,54,010,44,16,57,052,46*6C
$GBGSV,2,2,07,22,46,186,50,29,34,092,46,35,35,155,40,,,,*54
$GNVTG,,T,,M,0.04,N,0.07,K,D*3B
$GNGST,083354.00,4.500,,,,0.010,0.010,0.018*66
$GNZDA,083354.00,07,12,2022,00,00*77
$GNRMC,083355.00,A,1358.0162481,N,10026.7303585,E,0.04,,071222,,,D*5E
$GNGGA,083355.00,1358.0162481,N,10026.7303585,E,4,25,0.8,4.022,M,-31.715,M,1.0,0499*7E
$GPGSA,A,3,03,08,16,22,26,27,31,,,,,,1.6,0.8,1.4*37
$GLGSA,A,3,71,72,84,85,,,,,,,,,1.6,0.8,1.4*26
$GAGSA,A,3,02,03,08,,,,,,,,,,1.6,0.8,1.4*20
$GBGSA,A,3,06,07,09,16,22,29,35,,,,,,1.6,0.8,1.4*28
$GPGSV,2,1,07,03,35,240,44,08,46,180,47,16,51,004,41,22,30,133,43*79
$GPGSV,2,2,07,26,25,031,42,27,63,119,48,31,16,076,37,,,,*4C
$GLGSV,1,1,04,71,43,176,50,72,70,277,47,84,18,083,35,85,18,145,47*69
$GAGSV,1,1,03,02,43,010,43,03,57,140,48,08,67,328,49,,,,*5D
$GBGSV,2,1,07,06,58,033,44,07,85,319,45,09,54,010,44,16,57,052,46*6D
$GBGSV,2,2,07,22,46,186,50,29,34,092,46,35,35,155,40,,,,*54
$GNVTG,,T,,M,0.04,N,0.07,K,D*3B
$GNGST,083355.00,4.500,,,,0.010,0.010,0.019*66
$GNZDA,083355.00,07,12,2022,00,00*76
$GNRMC,083356.00,A,1358.0162494,N,10026.7303541,E,0.02,,071222,,,D*57
$GNGGA,083356.00,1358.0162494,N,10026.7303541,E,4,25,0.8,4.036,M,-31.715,M,1.0,0499*74
$GPGSA,A,3,03,08,16,22,26,27,31,,,,,,1.6,0.8,1.4*37
$GLGSA,A,3,71,72,84,85,,,,,,,,,1.6,0.8,1.4*26
$GAGSA,A,3,02,03,08,,,,,,,,,,1.6,0.8,1.4*20
$GBGSA,A,3,06,07,09,16,22,29,35,,,,,,1.6,0.8,1.4*28
$GPGSV,2,1,07,03,35,240,44,08,46,180,47,16,51,004,41,22,30,133,43*79
$GPGSV,2,2,07,26,25,031,42,27,63,119,48,31,16,076,37,,,,*4C
$GLGSV,1,1,04,71,43,176,50,72,70,277,48,84,18,083,35,85,18,145,47*66
$GAGSV,1,1,03,02,43,010,43,03,57,140,48,08,67,328,49,,,,*5D
$GBGSV,2,1,07,06,58,033,45,07,85,319,45,09,54,010,44,16,57,052,46*6C
$GBGSV,2,2,07,22,46,186,50,29,34,092,46,35,35,155,40,,,,*54
$GNVTG,,T,,M,0.02,N,0.04,K,D*3E
$GNGST,083356.00,4.500,,,,0.010,0.010,0.019*65
$GNZDA,083356.00,07,12,2022,00,00*75
$GNRMC,083357.00,A,1358.0162496,N,10026.7303535,E,0.02,,071222,,,D*57
$GNGGA,083357.00,1358.0162496,N,10026.7303535,E,4,25,0.8,4.035,M,-31.715,M,1.0,0499*77
$GPGSA,A,3,03,08,16,22,26,27,31,,,,,,1.6,0.8,1.4*37
$GLGSA,A,3,71,72,84,85,,,,,,,,,1.6,0.8,1.4*26
$GAGSA,A,3,02,03,08,,,,,,,,,,1.6,0.8,1.4*20
$GBGSA,A,3,06,07,09,16,22,29,35,,,,,,1.6,0.8,1.4*28
$GPGSV,2,1,07,03,35,240,44,08,46,180,47,16,51,004,41,22,30,133,43*79
$GPGSV,2,2,07,26,25,031,42,27,63,119,48,31,16,076,37,,,,*4C
$GLGSV,1,1,04,71,43,176,50,72,70,277,47,84,18,083,36,85,18,145,47*6A
$GAGSV,1,1,03,02,43,010,43,03,57,140,48,08,67,328,49,,,,*5D
$GBGSV,2,1,07,06,58,033,45,07,85,319,45,09,54,010,44,16,57,052,46*6C
$GBGSV,2,2,07,22,46,186,50,29,34,092,46,35,35,155,40,,,,*54
$GNVTG,,T,,M,0.02,N,0.04,K,D*3E
$GNGST,083357.00,4.200,,,,0.010,0.010,0.019*63
$GNZDA,083357.00,07,12,2022,00,00*74
$GNRMC,083358.00,A,1358.0162481,N,10026.7303562,E,0.02,,071222,,,D*5C
$GNGGA,083358.00,1358.0162481,N,10026.7303562,E,4,25,0.8,4.035,M,-31.715,M,1.0,0499*7C
$GPGSA,A,3,03,08,16,22,26,27,31,,,,,,1.6,0.8,1.4*37
$GLGSA,A,3,71,72,84,85,,,,,,,,,1.6,0.8,1.4*26
$GAGSA,A,3,02,03,08,,,,,,,,,,1.6,0.8,1.4*20
$GBGSA,A,3,06,07,09,16,22,29,35,,,,,,1.6,0.8,1.4*28
$GPGSV,2,1,07,03,35,240,44,08,46,180,47,16,51,004,41,22,30,133,43*79
$GPGSV,2,2,07,26,25,031,42,27,63,119,48,31,16,076,37,,,,*4C
$GLGSV,1,1,04,71,43,176,50,72,70,277,47,84,18,083,36,85,18,145,47*6A
$GAGSV,1,1,03,02,43,010,43,03,57,140,48,08,67,328,48,,,,*5C
$GBGSV,2,1,07,06,58,033,44,07,85,319,45,09,54,010,44,16,57,052,46*6D
$GBGSV,2,2,07,22,46,186,50,29,34,092,45,35,35,155,40,,,,*57
$GNVTG,,T,,M,0.02,N,0.04,K,D*3E
$GNGST,083358.00,4.200,,,,0.010,0.010,0.018*6D
$GNZDA,083358.00,07,12,2022,00,00*7B
$GNRMC,083359.00,A,1358.0162506,N,10026.7303556,E,0.04,,071222,,,D*52
$GNGGA,083359.00,1358.0162506,N,10026.7303556,E,4,25,0.8,4.036,M,-31.715,M,1.0,0499*77
$GPGSA,A,3,03,08,16,22,26,27,31,,,,,,1.6,0.8,1.4*37
$GLGSA,A,3,71,72,84,85,,,,,,,,,1.6,0.8,1.4*26
$GAGSA,A,3,02,03,08,,,,,,,,,,1.6,0.8,1.4*20
$GBGSA,A,3,06,07,09,16,22,29,35,,,,,,1.6,0.8,1.4*28
$GPGSV,2,1,07,03,35,240,44,08,46,180,47,16,51,004,41,22,30,133,43*79
$GPGSV,2,2,07,26,25,031,42,27,63,119,48,31,16,076,37,,,,*4C
$GLGSV,1,1,04,71,43,176,50,72,70,277,47,84,18,083,35,85,18,145,47*69
$GAGSV,1,1,03,02,43,010,43,03,57,140,47,08,67,328,48,,,,*53
$GBGSV,2,1,07,06,58,033,44,07,85,319,45,09,54,010,44,16,57,052,46*6D
$GBGSV,2,2,07,22,46,186,50,29,34,092,46,35,35,155,40,,,,*54
$GNVTG,,T,,M,0.04,N,0.07,K,D*3B
$GNGST,083359.00,4.400,,,,0.010,0.010,0.019*6B
$GNZDA,083359.00,07,12,2022,00,00*7A
$GNRMC,083400.00,A,1358.0162495,N,10026.7303561,E,0.02,,071222,,,D*50
$GNGGA,083400.00,1358.0162495,N,10026.7303561,E,4,24,0.8,4.038,M,-31.715,M,1.0,0499*7C
$GPGSA,A,3,03,08,16,22,26,27,31,,,,,,1.6,0.8,1.4*37
$GLGSA,A,3,71,72,84,85,,,,,,,,,1.6,0.8,1.4*26
$GAGSA,A,3,02,03,08,,,,,,,,,,1.6,0.8,1.4*20
$GBGSA,A,3,06,07,09,16,22,29,35,,,,,,1.6,0.8,1.4*28
$GPGSV,2,1,07,03,35,240,44,08,46,180,47,16,51,004,41,22,30,133,44*7E
$GPGSV,2,2,07,26,25,031,42,27,63,119,48,31,16,076,37,,,,*4C
$GLGSV,1,1,04,71,43,176,50,72,70,277,47,84,18,083,35,85,18,145,47*69
$GAGSV,1,1,03,02,43,010,43,03,57,140,48,08,67,328,49,,,,*5D
$GBGSV,2,1,07,06,58,033,45,07,85,319,45,09,54,010,44,16,57,052,46*6C
$GBGSV,2,2,07,22,46,186,50,29,34,092,45,35,35,155,40,,,,*57
$GNVTG,,T,,M,0.02,N,0.04,K,D*3E
$GNGST,083400.00,4.600,,,,0.010,0.010,0.018*63
$GNZDA,083400.00,07,12,2022,00,00*71
$GNRMC,083401.00,A,1358.0162501,N,10026.7303554,E,0.02,,071222,,,D*5B
$GNGGA,083401.00,1358.0162501,N,10026.7303554,E,4,24,0.8,4.041,M,-31.715,M,1.0,0499*79
$GPGSA,A,3,03,08,16,22,26,27,31,,,,,,1.6,0.8,1.4*37
$GLGSA,A,3,71,72,84,85,,,,,,,,,1.6,0.8,1.4*26
$GAGSA,A,3,02,03,08,,,,,,,,,,1.6,0.8,1.4*20
$GBGSA,A,3,06,07,09,16,22,29,35,,,,,,1.6,0.8,1.4*28
$GPGSV,2,1,07,03,35,240,44,08,46,180,47,16,51,004,41,22,30,133,44*7E
$GPGSV,2,2,07,26,25,031,42,27,63,119,48,31,16,076,37,,,,*4C
$GLGSV,1,1,04,71,43,176,50,72,70,277,47,84,18,083,36,85,18,145,47*6A
$GAGSV,1,1,03,02,43,010,43,03,57,140,47,08,67,328,49,,,,*52
$GBGSV,2,1,07,06,58,033,45,07,85,319,45,09,54,010,44,16,57,052,46*6C
$GBGSV,2,2,07,22,46,186,50,29,34,092,45,35,35,155,40,,,,*57
$GNVTG,,T,,M,0.02,N,0.04,K,D*3E
$GNGST,083401.00,4.100,,,,0.010,0.010,0.018*65
$GNZDA,083401.00,07,12,2022,00,00*70
$GNRMC,083402.00,A,1358.0162486,N,10026.7303507,E,0.02,,071222,,,D*50
$GNGGA,083402.00,1358.0162486,N,10026.7303507,E,4,24,0.8,4.040,M,-31.715,M,1.0,0499*73
$GPGSA,A,3,03,08,16,22,26,27,31,,,,,,1.6,0.8,1.4*37
$GLGSA,A,3,71,72,84,85,,,,,,,,,1.6,0.8,1.4*26
$GAGSA,A,3,02,03,08,,,,,,,,,,1.6,0.8,1.4*20
$GBGSA,A,3,06,07,09,16,22,29,35,,,,,,1.6,0.8,1.4*28
$GPGSV,2,1,07,03,35,240,44,08,46,180,47,16,51,004,41,22,30,133,43*79
$GPGSV,2,2,07,26,25,031,42,27,63,119,48,31,16,076,37,,,,*4C
$GLGSV,1,1,04,71,43,176,50,72,70,277,47,84,18,083,36,85,18,145,47*6A
$GAGSV,1,1,03,02,43,010,43,03,57,140,47,08,67,328,49,,,,*52
$GBGSV,2,1,07,06,58,033,45,07,85,319,45,09,54,010,44,16,57,052,46*6C
$GBGSV,2,2,07,22,46,186,50,29,34,092,45,35,35,155,40,,,,*57
$GNVTG,,T,,M,0.02,N,0.04,K,D*3E
$GNGST,083402.00,4.100,,,,0.010,0.010,0.018*66
$GNZDA,083402.00,07,12,2022,00,00*73
$GNRMC,083403.00,A,1358.0162484,N,10026.7303546,E,0.04,,071222,,,D*50
$GNGGA,083403.00,1358.0162484,N,10026.7303546,E,4,26,0.8,4.030,M,-31.715,M,1.0,0499*70
$GPGSA,A,3,03,08,16,22,26,27,31,,,,,,1.6,0.8,1.4*37
$GLGSA,A,3,71,72,74,84,85,,,,,,,,1.6,0.8,1.4*25
$GAGSA,A,3,02,03,08,,,,,,,,,,1.6,0.8,1.4*20
$GBGSA,A,3,06,07,09,16,22,29,35,,,,,,1.6,0.8,1.4*28
$GPGSV,2,1,07,03,35,240,44,08,46,180,47,16,51,004,41,22,30,133,43*79
$GPGSV,2,2,07,26,25,031,42,27,63,119,48,31,16,076,37,,,,*4C
$GLGSV,2,1,05,71,43,176,50,72,70,277,48,74,23,014,35,84,18,083,36*61
$GLGSV,2,2,05,85,18,145,47,,,,,,,,,,,,*57
$GAGSV,1,1,03,02,43,010,43,03,57,140,47,08,67,328,48,,,,*53
$GBGSV,2,1,07,06,58,033,45,07,85,319,45,09,54,010,44,16,57,052,46*6C
$GBGSV,2,2,07,22,46,186,50,29,34,092,45,35,35,155,40,,,,*57
$GNVTG,,T,,M,0.04,N,0.07,K,D*3B
$GNGST,083403.00,4.000,,,,0.010,0.010,0.017*69
$GNZDA,083403.00,07,12,2022,00,00*72
$GNRMC,083404.00,A,1358.0162465,N,10026.7303511,E,0.02,,071222,,,D*5C
$GNGGA,083404.00,1358.0162465,N,10026.7303511,E,4,25,0.8,4.029,M,-31.715,M,1.0,0499*71
$GPGSA,A,3,03,08,16,22,26,27,31,,,,,,1.6,0.8,1.4*37
$GLGSA,A,3,71,72,84,85,,,,,,,,,1.6,0.8,1.4*26
$GAGSA,A,3,02,03,08,,,,,,,,,,1.6,0.8,1.4*20
$GBGSA,A,3,06,07,09,16,22,29,35,,,,,,1.6,0.8,1.4*28
$GPGSV,2,1,07,03,35,240,44,08,46,180,47,16,51,004,42,22,30,133,43*7A
$GPGSV,2,2,07,26,25,031,42,27,63,119,48,31,16,076,37,,,,*4C
$GLGSV,1,1,04,71,43,176,50,72,70,277,48,84,18,083,36,85,18,145,47*65
$GAGSV,1,1,03,02,43,010,43,03,57,140,47,08,67,328,49,,,,*52
$GBGSV,2,1,07,06,58,033,45,07,85,319,45,09,54,010,44,16,57,052,46*6C
$GBGSV,2,2,07,22,46,186,50,29,34,092,45,35,35,155,40,,,,*57
$GNVTG,,T,,M,0.02,N,0.04,K,D*3E
$GNGST,083404.00,4.100,,,,0.010,0.010,0.018*60
$GNZDA,083404.00,07,12,2022,00,00*75
$GNRMC,083405.00,A,1358.0162482,N,10026.7303545,E,0.02,,071222,,,D*55
$GNGGA,083405.00,1358.0162482,N,10026.7303545,E,4,25,0.8,4.035,M,-31.715,M,1.0,0499*75
$GPGSA,A,3,03,08,16,22,26,27,31,,,,,,1.6,0.8,1.4*37
$GLGSA,A,3,71,72,84,85,,,,,,,,,1.6,0.8,1.4*26
$GAGSA,A,3,02,03,08,,,,,,,,,,1.6,0.8,1.4*20
$GBGSA,A,3,06,07,09,16,22,29,35,,,,,,1.6,0.8,1.4*28
$GPGSV,2,1,07,03,35,240,44,08,46,180,47,16,51,004,42,22,30,133,43*7A
$GPGSV,2,2,07,26,25,031,42,27,63,119,48,31,16,076,36,,,,*4D
$GLGSV,1,1,04,71,43,176,50,72,70,277,48,84,18,083,36,85,18,145,47*65
$GAGSV,1,1,03,02,43,010,43,03,57,140,47,08,67,328,49,,,,*52
$GBGSV,2,1,07,06,58,033,45,07,85,319,45,09,54,010,44,16,57,052,46*6C
$GBGSV,2,2,07,22,46,186,50,29,34,092,45,35,35,155,40,,,,*57
$GNVTG,,T,,M,0.02,N,0.04,K,D*3E
$GNGST,083405.00,4.300,,,,0.010,0.010,0.018*63
$GNZDA,083405.00,07,12,2022,00,00*74
$GNRMC,083406.00,A,1358.0162475,N,10026.7303539,E,0.02,,071222,,,D*55
$GNGGA,083406.00,1358.0162475,N,10026.7303539,E,4,24,0.8,4.043,M,-31.715,M,1.0,0499*75
$GPGSA,A,3,03,08,16,22,26,27,31,,,,,,1.6,0.8,1.4*37
$GLGSA,A,3,71,72,84,85,,,,,,,,,1.6,0.8,1.4*26
$GAGSA,A,3,02,03,08,,,,,,,,,,1.6,0.8,1.4*20
$GBGSA,A,3,06,07,09,16,22,29,35,,,,,,1.6,0.8,1.4*28
$GPGSV,2,1,07,03,35,240,44,08,46,180,47,16,51,004,42,22,30,133,43*7A
$GPGSV,2,2,07,26,25,031,42,27,63,119,47,31,16,076,36,,,,*42
$GLGSV,1,1,04,71,43,176,50,72,70,277,47,84,18,083,36,85,18,145,47*6A
$GAGSV,1,1,03,02,43,010,43,03,57,140,47,08,67,328,48,,,,*53
$GBGSV,2,1,07,06,58,033,45,07,85,319,45,09,54,010,44,16,57,052,46*6C
$GBGSV,2,2,07,22,46,186,50,29,34,092,45,35,35,155,40,,,,*57
$GNVTG,,T,,M,0.02,N,0.04,K,D*3E
$GNGST,083406.00,4.300,,,,0.010,0.010,0.018*60
$GNZDA,083406.00,07,12,2022,00,00*77
$GNRMC,083407.00,A,1358.0162471,N,10026.7303560,E,0.02,,071222,,,D*5C
$GNGGA,083407.00,1358.0162471,N,10026.7303560,E,4,26,0.8,4.042,M,-31.715,M,1.0,0499*7F
$GPGSA,A,3,03,08,16,22,26,27,31,,,,,,1.6,0.8,1.4*37
$GLGSA,A,3,71,72,74,84,85,,,,,,,,1.6,0.8,1.4*25
$GAGSA,A,3,02,03,08,,,,,,,,,,1.6,0.8,1.4*20
$GBGSA,A,3,06,07,09,16,22,29,35,,,,,,1.6,0.8,1.4*28
$GPGSV,2,1,07,03,35,240,44,08,46,180,47,16,51,004,42,22,30,133,43*7A
$GPGSV,2,2,07,26,25,031,42,27,63,119,47,31,16,076,36,,,,*42
$GLGSV,2,1,05,71,43,176,50,72,70,277,48,74,23,014,35,84,18,083,36*61
$GLGSV,2,2,05,85,19,144,47,,,,,,,,,,,,*57
$GAGSV,1,1,03,02,43,010,43,03,57,140,47,08,67,328,48,,,,*53
$GBGSV,2,1,07,06,58,033,45,07,85,319,45,09,54,010,44,16,57,052,46*6C
$GBGSV,2,2,07,22,46,186,50,29,34,092,45,35,35,155,40,,,,*57
$GNVTG,,T,,M,0.02,N,0.04,K,D*3E
$GNGST,083407.00,4.400,,,,0.010,0.010,0.017*69
$GNZDA,083407.00,07,12,2022,00,00*76
$GNRMC,083408.00,A,1358.0162472,N,10026.7303557,E,0.04,,071222,,,D*52
$GNGGA,083408.00,1358.0162472,N,10026.7303557,E,4,26,0.8,4.043,M,-31.715,M,1.0,0499*76
$GPGSA,A,3,03,08,16,22,26,27,31,,,,,,1.6,0.8,1.4*37
$GLGSA,A,3,71,72,74,84,85,,,,,,,,1.6,0.8,1.4*25
$GAGSA,A,3,02,03,08,,,,,,,,,,1.6,0.8,1.4*20
$GBGSA,A,3,06,07,09,16,22,29,35,,,,,,1.6,0.8,1.4*28
$GPGSV,2,1,07,03,35,240,45,08,46,180,47,16,51,004,42,22,30,133,43*7B
$GPGSV,2,2,07,26,25,031,42,27,63,119,48,31,16,076,36,,,,*4D
$GLGSV,2,1,05,71,43,176,50,72,70,277,48,74,23,014,35,84,18,083,36*61
$GLGSV,2,2,05,85,19,144,47,,,,,,,,,,,,*57
$GAGSV,1,1,03,02,43,010,43,03,57,140,47,08,67,328,48,,,,*53
$GBGSV,2,1,07,06,58,033,45,07,85,319,45,09,54,010,44,16,57,052,46*6C
$GBGSV,2,2,07,22,46,186,50,29,34,092,45,35,35,155,41,,,,*56
$GNVTG,,T,,M,0.04,N,0.07,K,D*3B
$GNGST,083408.00,4.300,,,,0.010,0.010,0.017*61
$GNZDA,083408.00,07,12,2022,00,00*79
$GNRMC,083409.00,A,1358.0162498,N,10026.7303536,E,0.04,,071222,,,D*50
$GNGGA,083409.00,1358.0162498,N,10026.7303536,E,4,25,0.8,4.038,M,-31.715,M,1.0,0499*7B
$GPGSA,A,3,03,08,16,22,26,27,31,,,,,,1.6,0.8,1.4*37
$GLGSA,A,3,71,72,84,85,,,,,,,,,1.6,0.8,1.4*26
$GAGSA,A,3,02,03,08,,,,,,,,,,1.6,0.8,1.4*20
$GBGSA,A,3,06,07,09,16,22,29,35,,,,,,1.6,0.8,1.4*28
$GPGSV,2,1,07,03,35,240,44,08,46,180,47,16,51,004,42,22,30,133,43*7A
$GPGSV,2,2,07,26,25,031,41,27,63,119,48,31,16,076,36,,,,*4E
$GLGSV,1,1,04,71,43,176,50,72,70,277,48,84,18,083,36,85,19,144,47*65
$GAGSV,1,1,03,02,43,010,43,03,57,140,47,08,67,328,48,,,,*53
$GBGSV,2,1,07,06,58,033,45,07,85,319,45,09,54,010,43,16,57,052,46*6B
$GBGSV,2,2,07,22,46,186,50,29,34,092,45,35,35,155,41,,,,*56
$GNVTG,,T,,M,0.04,N,0.07,K,D*3B
$GNGST,083409.00,4.200,,,,0.010,0.010,0.017*61
$GNZDA,083409.00,07,12,2022,00,00*78
$GNRMC,083410.00,A,1358.0162517,N,10026.7303545,E,0.02,,071222,,,D*5C
$GNGGA,083410.00,1358.0162517,N,10026.7303545,E,4,24,0.8,4.041,M,-31.715,M,1.0,0499*7E
$GPGSA,A,3,03,08,16,22,26,27,31,,,,,,1.6,0.8,1.4*37
$GLGSA,A,3,71,72,84,85,,,,,,,,,1.6,0.8,1.4*26
$GAGSA,A,3,02,03,08,,,,,,,,,,1.6,0.8,1.4*20
$GBGSA,A,3,06,07,09,16,22,29,35,,,,,,1.6,0.8,1.4*28
$GPGSV,2,1,07,03,35,240,44,08,46,180,47,16,51,004,42,22,30,133,43*7A
$GPGSV,2,2,07,26,25,031,41,27,63,119,47,31,16,076,36,,,,*41
$GLGSV,1,1,04,71,43,176,50,72,70,277,48,84,18,083,36,85,19,144,47*65
$GAGSV,1,1,03,02,43,010,43,03,57,140,47,08,67,328,48,,,,*53
$GBGSV,2,1,07,06,58,033,45,07,85,319,45,09,54,010,43,16,57,052,46*6B
$GBGSV,2,2,07,22,46,186,50,29,34,092,45,35,35,155,41,,,,*56
